name,lat,lon
Храм Сергия Радонежского в Троицком Подворье,55.7765617,37.6232529
Южный речной вокзал,55.6893577,37.6757689
Музей Рерихов,55.7466351,37.6032972
Жилой дом на Котельнической набережной,55.7470836,37.6426543
Музей личных коллекций,55.7473762,37.6071231
Галерея искусства Европы и Америки,55.7464881,37.6053051
Всероссийский музей декоративно-прикладного и народного искусства,55.774946,37.6095316
Государственный музей А.С.Пушкина,55.7440686,37.5968988
Государственный центральный театральный музей им. А.А.Бахрушина,55.7318143,37.6380763
Государственный Дарвиновский музей,55.6907141,37.5614951
Бирюлевский дендропарк,55.5968688,37.6771846
Царь-пушка (памятник),55.7514667,37.6179211
Царь-колокол (памятник),55.7507983,37.6184747
Церковь Параскевы (Пятницы) Великомученицы,55.5715164,37.580822
Часовня князя Даниила,55.7109131,37.6236618
Церковь Михаила Архангела,55.7258283,37.6294039
Памятник А. С. Пушкину,55.7653354,37.6054856
Родник Царевна-Лебедь,55.8266489,37.4724198
Троицкая церковь,55.7219666,37.5217272
Природно-исторический парк Битцевский лес,55.5899509,37.562068
Фигурные ворота (музей-заповедник «Царицыно»),55.6142079,37.6808076
Памятник Василию Ивановичу Баженову и Матвею Фёдоровичу Казакову,55.6156575,37.6845333
Музей железнодорожного транспорта,55.7940863,37.6325067
Воробьевы горы,55.709356,37.5423321
Андреевская церковь,55.6836433,37.7636128
Триумфальная площадь(памятник В. Маяковскому),55.769621,37.5956487
Церковь святой блаженной Ксении Петербургской,55.705679,37.7970906
Нулевой километр,55.7558383,37.6176727
Городская усадьба Разумовского,55.7626564,37.6689087
Парк имени 850-летия города Москвы,55.6457536,37.7612112
Электромузей,55.8358144,37.6590738
Памятник 'Рабочий и колхозница',55.8280999,37.6470354
Парк культуры и отдыха Северное Тушино,55.861109,37.4516668
Музей-мастерская Зураба Церетели, дом мастера,55.7663005,37.5757982
Государственный выставочный зал 'Галерея 'Беляево',55.6447691,37.5259429
Палеонтологический музей,55.6239794,37.5139616
Музей-квартира А.С.Пушкина,55.7475414,37.5858475
Памятник космической программе Интеркосмос,55.6117996,37.6025668
Часовня Макария Желтоводского,55.9064869,37.5974471
None45,55.8486675,37.397215
Ростокинский дворник,55.8319712,37.6589201
None47,55.6023434,37.6733797
Смотровая площадка,55.7124303,37.5781424
Фонд культуры 'Екатерина',55.762556,37.6281285
Часовня в парке Северное Тушино,55.8648925,37.4509022
Городская усадьба С.С. Гагарина,55.7559664,37.5891178
Русские валенки,55.7257389,37.6487933
Николая Чудотворца,55.7892631,37.8229677
Церковь Димитрия Донского,55.6312301,37.8473656
Церковь Макария _-_ митрополита Алтайского,55.6299624,37.8494852
Троицы Живоначальной,55.6158146,37.5838457
Музей Героев Советского Союза Зои и Александра Космодемьянских,55.8206006,37.5047097
None58,55.8217403,37.6657736
Храм в честь иконы Божией Матери 'Неопалимая Купина',55.8698416,37.623044
Альпинисты,55.7147428,37.5575805
Дерево любви,55.7283199,37.5783937
Купание лошадей,55.7790473,37.5580701
Лани,55.7983624,37.5133584
Трехарочный грот,55.6889305,37.7881698
Большой грот,55.6891835,37.788156
None66,55.6425801,37.6539313
В честь украинско-российской дружбы,55.8992278,37.6077048
Дети — жертвы пороков взрослых,55.7459623,37.6194741
Храм Собора Московских святых,55.886697,37.5988274
Музей В.В. Маяковского,55.759489,37.6294805
Praha matka mest,55.6114481,37.6029106
Б. Ш. Окуджаве,55.7481529,37.5878236
None73,55.6163993,37.6808398
Храм Спаса Нерукотворного Образа,55.709756,37.4196124
Музей С. С. Прокофьева,55.7601513,37.6144128
Домовой храм при МИФИ,55.6500725,37.6637064
None77,55.7433052,37.7023621
Тройка лошадей_-_ берущих препятствие,55.6428293,37.5865752
None79,55.7071958,37.5255046
None80,55.7977226,37.5534877
Юноша,55.8126139,37.4483649
Девушка,55.8127962,37.4475319
None83,55.610672,37.798006
Купальщица,55.7189534,37.5870929
Музей 'Храм Покрова в Филях',55.7506982,37.5102343
Храм Всех Святых в Филях,55.7632265,37.4780972
Лошадь 'Вечерняя Москва',55.7334669,37.5878587
Лошадь 'Клоун',55.7336344,37.5881802
Московский Планетарий,55.7614474,37.5836608
Часовня в память о погибших моряках и путешественниках в честь Святителя Николы Угодника,55.735439,37.6437337
None91,55.8752518,37.6678299
None92,55.8754189,37.6679272
None93,55.8749192,37.6676779
None94,55.8750693,37.6677509
None95,55.8755332,37.6679789
Павлин,55.7580803,37.6994671
Могилёвский дворик,55.7802502,37.7251764
None98,55.7339654,37.6212244
Китайский уголок,55.7369559,37.6078668
Возрождение,55.7359732,37.6246985
Дом-музей А.Н. Островского,55.7387976,37.626381
Музей Водки,55.7564862,37.6787349
Памятник проходившей здесь Бескудниковской железнодорожной ветке,55.8615577,37.6123493
Вдохновение,55.7406652,37.6223825
Музей-квартира Ф.М.Достоевского,55.7834974,37.6103574
Братская могила_-_ обелиск погибшим воинам,55.5747261,37.3513391
Поклонный крест на месте разрушенного Покровского Храма,55.5727504,37.3509819
None108,55.8909017,37.6208256
Музей Спорта,55.7162148,37.5555292
ДОТ,55.9106774,37.4801027
None111,55.6889571,37.702865
Выставочный зал 'Тушино',55.8489908,37.4289268
Точка G,55.7518208,37.5920261
Happylon,55.5868012,37.7247388
Game zona,55.8882646,37.5890314
None116,55.8670814,37.6817961
Храм Воскресения Христова,55.7795452,37.7186112
Часовня Георгия Победоносца,55.8486519,37.3670388
None119,55.7900533,37.4444786
Водолаз-маяк,55.723216,37.5921114
Храм Пантелеимона при больнице №61,55.7213456,37.5664906
Часовня святителя Филиппа,55.6531472,37.3510793
Православная Церковь Божией Матери Державная,55.8037694,37.5709545
None124,55.6233486,37.7286499
None125,55.6151238,37.6838048
None126,55.6110901,37.6873226
None127,55.6128261,37.690976
None128,55.6190499,37.6735649
None129,55.5968976,37.6791996
None130,55.6124165,37.6815769
2-я баптистская церковь,55.696604,37.6168346
Океанариум,55.9103208,37.5421068
Дом на набережной,55.7451872,37.6119663
Музей человека 'Живые системы',55.8006028,37.5841686
Молитвенный Дом ЦИХСПД,55.7445925,37.6319061
None136,55.8075881,37.464272
Грот «Руины»,55.7537642,37.6153707
Девушка с кувшином,55.7782187,37.5160459
Фонтан-стела,55.9000224,37.5708197
Музей холодной войны (экспозиционный комплекс Бункер-42),55.7416458,37.6491082
храм Мат Марьям (Девы Марии),55.718779,37.6735954
Церковь Георгия Победоносца,55.587951,37.813785
Королёвский исторический музей,55.9183032,37.8136946
None144,55.8156149,37.4707968
None145,55.829246,37.459937
Домовый храм Елисаветы Феодоровны,55.8037233,37.563069
Церковь Иосифа Обручника,55.7836728,37.6631255
Часовня 'Неувядаемый Цвет',55.784037,37.666213
М.О.С.Т.,55.7333654,37.6015687
None150,55.7333743,37.6071246
Музей-квартира священника Павла Флоренского,55.7392507,37.5805508
Белые медведи,55.762846,37.5817734
Северные морские котики,55.7625502,37.5797725
Полярные совы,55.7628553,37.5812184
Приматы,55.7622604,37.5833966
Турья горка,55.7633498,37.5823827
Ленивцы,55.7626045,37.5795618
Экзотариум,55.7640925,37.5841846
Остров зверей,55.7640503,37.5837448
Ластоногие,55.7641529,37.5756503
Капибары,55.761906,37.5790597
Журавли,55.7627948,37.578737
Японские макаки,55.7624191,37.5790074
Фауна Китая,55.7621541,37.5748676
Кистеухие свиньи,55.7640293,37.5768573
Непарнокопытные,55.7635945,37.5744594
Овцебыки,55.7636309,37.5754465
Гепарды,55.7623269,37.5758381
Хищные птицы,55.7627455,37.582126
Сумеречный мир,55.7632711,37.5781529
Круг катания,55.7631271,37.5772738
Древо Жизни,55.7630624,37.5781789
Дельфины,55.8326892,37.6199676
Снежные козы,55.7634709,37.5762243
Кошачий и собачий ряд,55.7630996,37.575248
Антилопы,55.7631208,37.5758863
Очковые медведи,55.7626531,37.5749128
Волки,55.7642046,37.5843558
Ю. В. Никулину,55.7705893,37.6208914
Старый цирк,55.7705819,37.6218295
None181,55.9116697,37.3782291
None182,55.8939595,37.3881759
Музей истории Лефортово,55.76945,37.7110632
None184,55.8074356,37.7325488
None185,55.5745822,37.6042756
None186,55.7933961,37.3834815
Кремлёвские куранты,55.7525515,37.6214371
Галерея 'Измайлово',55.7908746,37.7703539
Дореволюционный фонарь,55.8003605,37.470263
Водный путь,55.8519867,37.4715336
Музейно-выставочный комплекс,55.7609828,37.8605297
Алексе́й Никола́евич Крыло́в,55.8519553,37.4668994
Баскетболисты,55.853089,37.4664033
Дети мира,55.8518002,37.4756301
Менажереи_-_ домики для птиц,55.7346945,37.811511
Музей истории ГУЛАГа,55.7771129,37.6137325
Минералогический музей им. Ферсмана,55.7187353,37.592779
Экспериментальный каркасно-панельный жилой дом,55.6885895,37.5777448
Экспериментальный каркасно-панельный жилой дом_-_ прототип серии К-7,55.6892667,37.5773892
Метровагон серии А,55.716625,37.6889924
Узкоколейный тепловоз ТУ6А-2485,55.7164979,37.6901738
Церковь Новомучеников и Исповедников Российских,55.8030521,37.4018032
Церковь Петра_-_ митрополита Московского_-_ и Иннокентия_-_ епископа Иркутского,55.583888,37.8493682
Церковь-часовня Иконы Божией Матери Неувядаемый Цвет,55.6168786,37.344306
Часовня Петра и Павла,55.6121332,37.4873844
Церковь Виктора Воина,55.6603254,37.8484078
Часовня Иконы Божией Матери Владимирская,55.6054027,37.4427412
Часовня Иконы Божией Матери Всех Скорбящих Радость,55.8910998,37.4164801
None209,55.768495,37.8444603
Мемориальный музей-квартира А.Н. Толстого,55.7585382,37.5966937
None211,55.763716,37.6900352
Центральный пограничный музей ФСБ России,55.7508201,37.6455571
Церковь Собора Дивеевских Святых,55.7769424,37.6328641
Дайте дорогу утятам,55.7283345,37.5556181
Скамейки наук,55.7660601,37.635963
Дуб-долгожитель,55.8188169,37.328345
None217,55.7779356,37.8452821
Придел Александра Свирского,55.752461,37.6232415
Церковь Варлаама Хутынского,55.7523911,37.6229993
Придел Василия Блаженного,55.7526127,37.6232411
Придел Григория Армянского,55.7525095,37.62289
Придел Киприана и Иустины,55.7525943,37.6229716
Придел Николы Великорецкого,55.7523737,37.6231678
Придел Святой Троицы,55.7525436,37.6232686
Придел Трёх Патриархов,55.7525796,37.6231319
Теремной дворец,55.7506384,37.6157295
Золотая Царицына палата,55.7507042,37.616391
Вертолёт,55.6985245,37.8778887
Усадьба Узкое,55.6203088,37.5371256
None231,55.7257926,37.5981814
None232,55.8513304,37.58619
Центр фотографии им. братьев Люмьер,55.739769,37.6101802
Храм преподобных Варлаама и Иоасафа под колокольней,55.7257772,37.5573712
Храм св. ап. Иоанна Богослова,55.7257395,37.5575325
Горельефы Храма Христа Спасителя,55.7152598,37.603959
Дом-музей Б. Пастернака,55.6612444,37.3338545
Музей-галерея Е.А. Евтушенко,55.6535947,37.3275084
None239,55.7542908,37.6133379
None240,55.7551786,37.614011
None241,55.7552889,37.6136941
None242,55.7553449,37.6143489
None243,55.7555132,37.613863
None244,55.7559073,37.6159521
None245,55.8193042,37.4677603
Новая Третьяковка,55.7348087,37.6062274
Лошадка,55.7610218,37.7561771
None248,55.7766439,37.8397438
Музей Буратино-Пиноккио,55.7910895,37.7816015
None250,55.6138594,37.5377059
Музей книги,55.7522086,37.6088753
Юный фотограф,55.8275295,37.3335296
None253,55.7388504,37.6106045
Древо жизни,55.748299,37.5439559
Фотогалерея 'Метро',55.7496931,37.540548
None256,55.6144184,37.5392804
Церковь Евангельских христиан-баптистов Воскресение,55.642928,37.6762023
Всем влюбленным,55.7705117,37.6079721
персонажам поэмы «Москва-Петушки»,55.785243,37.6059273
Московский дом Ахматовой,55.7571296,37.6106752
Музей-квартира В.Э. Мейерхольда,55.7600859,37.6099116
Весть,55.7590892,37.6065999
Московский музей современного искусства,55.7671834,37.6138513
None264,55.8245655,37.6146907
Роза Азора,55.7570018,37.5992068
Музей искусства народов Востока,55.7563931,37.5998947
None267,55.6627654,37.6678928
None268,55.7035616,37.5324743
None269,55.703898,37.5318703
None270,55.7024746,37.5294093
None271,55.7021829,37.529935
None272,55.7026336,37.5307905
None273,55.7029149,37.5312662
None274,55.7029331,37.5302516
None275,55.7032062,37.5307406
Стена Цоя,55.7490497,37.5909234
Домовой храм в МИИТ,55.7878191,37.6081014
Здание школы 1888г,55.7613595,37.8599221
Дом управляющих хлопкопрядильной фабрикой 1850г,55.7594882,37.8611934
Общежитие им. В. М. Большакова (Четвёртая казарма) 1881г,55.761115,37.858243
Общежитие им. А. Сысоева (Пятая казарма) 1910г,55.7614742,37.8572291
Общежитие им. И. И. Топорова (Третья казарма) 1881г,55.7603212,37.8576422
Хлопкопрядильная фабрика,55.7589785,37.8644747
Общежитие им. С. С. Богданова (Вторая казарма),55.7601613,37.8595412
None285,55.8270153,37.4500728
Дом-музей Шаляпина,55.7566941,37.5833111
Московский государственный музей Вадима Сидура,55.753169,37.7990588
Выставочный зал истории войны в Афганистане,55.757888,37.774538
Химкинская картинная галерея им. С.Н. Горшина,55.8891973,37.4457276
Дом Высоцкого на Таганке,55.7445426,37.6519451
None291,55.7448165,37.8514099
None293,55.7510407,37.6093639
None294,55.7511565,37.6094249
None295,55.7512202,37.6094585
None296,55.7513356,37.6095193
None297,55.7509826,37.6093333
None298,55.7513907,37.6095484
None299,55.7509285,37.6093048
None300,55.7514501,37.6095797
None301,55.7508695,37.6092736
None302,55.7512774,37.6094887
None303,55.7508099,37.6092423
None304,55.7511007,37.6093955
Ч. Дарвин,55.7522973,37.6085133
None306,55.7522852,37.6088804
И. П. Павлов,55.7523076,37.6082251
None308,55.7523044,37.608315
None309,55.7522875,37.6087871
None310,55.7522909,37.6086917
None311,55.7522942,37.608599
None312,55.7523008,37.6084142
Бибигон,55.7026093,37.3284529
Храм великомученицы Татианы Римской,55.6758757,37.7657974
Государственный музей Л.Н. Толстого,55.7428122,37.5969685
None316,55.8913045,37.3779271
Аллея Славы в честь Победителей в Великой Отечественной войне,55.889338,37.3805065
Дом В.Б. Толстого,55.7590714,37.6587479
Водяное колесо,55.9104936,37.3855098
Научно-мемориальный музей профессора Н.Е. Жуковского,55.7635513,37.6790989
Скамья примирения,55.7441078,37.6189697
Прощание славянки,55.7766094,37.5812356
None323,55.6617784,37.6664844
Миру — мир!,55.7267875,37.5609048
Церковь Иконы Божией Матери Отрада или Утешение на Каховке,55.6534959,37.5966443
None326,55.8409369,37.3246207
None327,55.8467623,37.4042647
None328,55.8483028,37.4103636
None329,55.762016,37.624186
None330,55.74253,37.6569771
None331,55.7425445,37.6570534
None332,55.7425546,37.6568987
None333,55.7425897,37.6572467
None334,55.7425953,37.6570891
None335,55.7426149,37.6572061
Выставочный зал 'АхДи',55.7506848,37.5957474
None337,55.9098579,37.563704
None338,55.9098874,37.5639667
Политехнический музей на ВДНХ,55.8343574,37.6214271
Усадьба Измайлово,55.7919814,37.7610548
Марьино,55.6577414,37.7909919
None342,55.810274,37.8423887
None343,55.6573217,37.7968414
Творческая мастерская художника Зураба Церетели,55.7662408,37.5769988
А. П. Чехову,55.6995549,37.5162556
None347,55.6115303,37.5559571
Музей уникальных кукол,55.7593066,37.6445089
Владимиру Зворыкину,55.8232547,37.6121852
Придел Входа Господня в Иерусалим,55.7524227,37.6228549
временный храм Апостола и евангелиста Иоанна Богослова,55.8391875,37.4650542
временный храм в честь священномученика Ермогена_-_ патриарха Московского и Всея Руси,55.8438586,37.4286324
Запасной командный пункт Верховного Главнокомандующего ('Бункер Сталина'),55.7973575,37.7516046
None354,55.8221162,37.8697915
None355,55.8082606,37.3332482
Содружество церквей «Слово жизни»,55.8109634,37.6550671
Девочка на шаре,55.751856,37.4103707
Музей русской гармоники А. Мирека,55.771822,37.5945538
Политехнический музей_-_ открытые фонды,55.7089892,37.7226516
Государственный музей М. А. Булгакова,55.7670276,37.5939442
None361,55.7526048,37.6014423
Дом-музей А.П. Чехова,55.7603073,37.5860933
None363,55.7416773,37.8796913
Дом-музей В.Л. Пушкина,55.7690155,37.6688753
Красногорская церковь евангельских христиан-баптистов,55.8136677,37.321016
Пожарный насос,55.6839453,37.8751626
Мемориальный музей-квартира Е.Ф.Гнесиной,55.755259,37.592232
Музей воды,55.7293577,37.656708
None369,55.7601797,37.6258985
Музей детства,55.760394,37.6249678
Экспериментаниум,55.8088254,37.5108289
None372,55.5742158,37.355543
Дом И.С. Остроухова в Трубниках,55.7548303,37.586737
Дом Русского зарубежья имени Александра Солженицына,55.7428607,37.6516599
Усыпальница бояр Романовых,55.7318124,37.6563244
Мемориальная квартира Андрея Белого,55.74737,37.5855988
Дом-музей А.И. Герцена,55.7471255,37.5918975
Ар Деко,55.7152789,37.5741033
Творческое наследие академика Юрия Орехова,55.7404075,37.5781424
Музей-квартира Г. С. Улановой,55.7466123,37.6418981
Музей Императорского православного палестинского общества,55.7551257,37.6381335
Музей Ю.В. Никулина,55.7578004,37.633077
Археологический выставочный комплекс 'Старый 'Гостиный двор',55.7538794,37.6277982
П.И. Чайковский и Москва,55.7581396,37.5853551
Интерактивный музей 'Лунариум',55.7610315,37.5836102
Stella Art Foundation,55.758491,37.5895348
Педагогический музей А.С.Макаренко,55.7299494,37.4330928
Музей барона Мюнхгаузена,55.7719604,37.481038
Самоцветы,55.7810999,37.4795144
Центральный музей им. Б.В.Зимина Всероссийского общества слепых,55.787592,37.5109055
Музей истории телефонной связи МГТС,55.7956302,37.5034669
Музей памяти погибших воинов в Афганистане_-_ Чечне и других горячих точках,55.8099708,37.4563707
Музей истории евреев в России,55.793716,37.5605257
Музей спортивной славы ЦСКА,55.7950452,37.5386966
Музей охоты и рыболовства,55.8398495,37.4887573
Музей Морского космического флота,55.7876993,37.6299878
Музей экономики и быта,55.8434168,37.4340882
Музей денег,55.8578944,37.4656142
Научно-художественный музей коневодства,55.8305994,37.553283
Музей русского костюма,55.8489299,37.5871807
Музей истории телефона,55.7649901,37.5879818
Музей народной игрушки 'Забавушка',55.79666,37.7332167
Музей истории Российского флота,55.7944017,37.7517782
Музей янтаря,55.7939815,37.7510901
Музей колоколов,55.7941171,37.7519522
Музей национального костюма,55.7942772,37.7519126
Музей русской игрушки,55.7945951,37.7505642
Музей русской сказки,55.7945462,37.7511613
Музей истории водки,55.7940393,37.750584
Музей хлеба,55.794126,37.7495321
Всемирная история в пластилине,55.7940335,37.7518467
Центральный музей Внутренних войск МВД России,55.7604841,37.6984822
Музей-квартира А.М. Васнецова,55.7637956,37.6487268
Музей службы внешней разведки,55.7468011,37.7163464
Музей кочевой культуры,55.7447338,37.7195663
Музей предпринимателей_-_ меценатов и благотворителей,55.7246933,37.6088853
Московский музей образования,55.7360348,37.6298234
Музей Игоря Талькова,55.7436562,37.6262588
Экоцентр «Воробьёвы горы»,55.7125565,37.5774275
Музей-кабинет П.Л. Капицы,55.7086433,37.5756483
Мемориальный кабинет-музей академика А.П. Виноградова,55.7053245,37.5496523
Музей традиционных русских напитков,55.6745198,37.4347453
Родные истоки,55.7020943,37.7458006
Музей воинской славы «Победные дни России»,55.7202157,37.8177448
Мытищинский историко-художественный музей,55.9112688,37.7356398
Аналемматические солнечные часы,55.7201155,37.5077719
Фестивальный цветок,55.8536755,37.4862083
Музей АЗ,55.7722158,37.5938887
None429,55.7027615,37.5562918
None430,55.8887437,37.564519
Вальс,55.899865,37.5716165
Cказочный поезд,55.90003,37.571592
Веселые лодочки,55.8998328,37.5727468
Автодром,55.7941309,37.6712499
Водные шары,55.7937932,37.6717615
Богатырь,55.900974,37.5730528
Избушка на курьих ножках,55.9012187,37.5728964
None439,55.9013626,37.5728144
Батут,55.899642,37.5703078
None441,55.9004916,37.5712784
Сова,55.8211583,37.6012317
None443,55.9011074,37.5728838
Шахматная доска,55.9001834,37.570074
Надувные батуты,55.8999473,37.5702973
None446,55.7576798,37.4282292
Западный холм,55.7532903,37.419838
Песня,55.7691205,37.622057
Батуты,55.8778742,37.5320421
Весёлые горки,55.8997089,37.5719032
Вихрь,55.8999406,37.5723232
Каноэ ривер,55.7807808,37.7526027
Корсар,55.7937297,37.6733985
Летающая тарелка,55.8997006,37.572304
Прыгающая звезда,55.9002662,37.573088
Орбита,55.8999826,37.5727255
Пират,55.8998654,37.5713559
Поросята,55.9001067,37.5720763
Ралли,55.7941897,37.672354
None460,55.9001448,37.5729704
Лось,55.8582847,37.6930507
None462,55.728085,37.4997806
None463,55.752379,37.4085111
None464,55.7525642,37.4086129
None465,55.7522404,37.4086602
None466,55.7524372,37.4087998
None467,55.7527948,37.4076498
None468,55.7527682,37.4073805
Рождение жизни,55.7525972,37.4078593
None470,55.75266,37.4080943
None471,55.752507,37.4081694
Даев-33,55.7694963,37.6398369
Brusov Art Space,55.7579656,37.6060182
Masterskaya,55.7443584,37.5982974
Выставочный зал дома Гоголя,55.753747,37.6000952
Фотоцентр,55.7461879,37.600707
None477,55.7525736,37.4087804
None478,55.7557734,37.4082928
None479,55.7557968,37.4082894
None480,55.7558201,37.4082859
Арт-Трофи,55.767244,37.632277
Лента Мёбиуса,55.7279849,37.584193
None483,55.6014218,37.6020465
Фея Главбух,55.7963759,37.6794727
None485,55.7964321,37.6805136
None486,55.7964883,37.6801774
Сююмбике,55.774048,37.6548608
Храм в честь Казанской иконы Божией Матери,55.7739968,37.6548122
Конвой,55.7937227,37.6724293
Котёл,55.6984033,37.6243699
Музей шоколада,55.794583,37.7507778
Эйфелева башня,55.8439313,37.3554791
Конь,55.6932407,37.6604658
В себе,55.8379098,37.6181127
Зыбкость,55.8313903,37.6292878
Бывший храм Николая Чудотворца,55.7228981,37.626761
Девушка с веслом,55.7108123,37.651588
Музей шахмат Российской шахматной федерации,55.7477911,37.6004296
Дом великана,55.7506243,37.5948664
Я люблю Москву,55.7388886,37.7744746
Парквик,55.6535597,37.6463407
Центральный дом художника,55.734393,37.6043823
Мать Тереза,55.7668995,37.5713948
Я есмь пастырь добрый,55.7668105,37.5719792
Пингвины,55.7649637,37.5743856
Музей истории зоопарка,55.7627819,37.575478
Болотная сова,55.7630395,37.5785179
Ворон,55.7632449,37.5781734
Куница,55.7632087,37.5783683
Лесной хорь,55.7631109,37.5784989
Соболь,55.763235,37.5782785
Степной кот,55.7631652,37.5784473
Фламинго,55.7621525,37.5763194
Дагестанский тур,55.763329,37.5818947
Выдра,55.7626348,37.5802655
Земляные утки,55.7630796,37.5799205
Красноухая черепаха,55.7632241,37.5810008
Магелланов гусь,55.7625994,37.5797871
Нырковые утки,55.7630173,37.5803813
Птицы и бабочки тропиков,55.7639041,37.5821113
Речные утки,55.7629493,37.5808749
Рыжая свистящая утка,55.7637157,37.5822422
Сизая чайка,55.7631136,37.5801497
Харза,55.7626999,37.5805123
Чайки,55.7639041,37.5825091
Домашний осёл,55.7633686,37.5850649
Домашняя лошадь,55.762928,37.5846735
Животные Африки,55.7633006,37.5840728
Музей советских игровых автоматов,55.8337789,37.6267796
Галерея «На Шаболовке»,55.7129065,37.6102162
None532,55.803729,37.7317581
None533,55.8040456,37.7313986
None534,55.8010783,37.7315052
Купальня в честь святой Параскевы,55.8595258,37.3705188
Музей истории овощеводства защищённого грунта России,55.6604706,37.850529
Памятный камень «Аллея имени Алисы Селезнёвой»,55.8537202,37.4852751
Хлеб,55.8526816,37.473295
Плодородие,55.8521788,37.4736544
None540,55.61443,37.6853094
Охранник,55.7581461,37.6240711
Коровьев и Бегемот,55.7671738,37.5935552
КиВиН,55.7902881,37.606211
Студент,55.7877392,37.6081575
Будда,55.7776805,37.6291567
Скамья Семьи_-_ Любви и Верности,55.6909146,37.7885189
LAVка - скамейка для двоих,55.8306517,37.65564
Конфуций,55.8446022,37.6331394
Голуби,55.7613253,37.6244627
Шурик и Лида,55.702802,37.7368107
Карандаш и Клякса,55.7244426,37.5734431
Двуликий Янус,55.7389621,37.6024243
Ходжа Насреддин,55.7408291,37.4156492
Барон Мюнхгаузен,55.7410978,37.4159773
Лайка,55.7945328,37.5594751
Белый Кролик,55.7819367,37.7384403
Храм князя Александра Невского при б.Комиссаровском училище,55.7670876,37.5975862
Музей пряника,55.7570097,37.6435814
Паровоз Черепановых 1-1-0,55.8137873,37.5284011
Нимфа,55.6124623,37.6815674
Малый истукан,55.5985366,37.6772178
Большой истукан,55.5968087,37.677093
ежи,55.5914553,37.6770171
Дом ежей,55.5913977,37.6770493
Церера,55.6088759,37.6873732
Погладь енота,55.7110435,37.6756029
None568,55.8192294,37.3318749
None569,55.8192445,37.3318307
Мемориальная квартира-музей Е.Б. Вахтангова,55.7436565,37.5879232
Лисятница,55.8387114,37.626133
Охотник,55.8387337,37.6259989
Бывшая могила Матроны Московской,55.7042441,37.609859
Христианская евангельская церковь,55.8109436,37.6550962
Музей техники Apple,55.8060829,37.5902156
Московский государственный музей С. А. Есенина (филиал),55.7266294,37.6307776
Макет Comcity,55.6351655,37.4314436
Константин Рокоссовский,55.8147241,37.7179588
Onnuri church,55.7275237,37.6088224
Joument ,55.8268964,37.4443462
Театральная галерея на Малой Ордынке,55.7387307,37.6258699
None582,55.6241745,37.8646465
Лермонтов,55.7363085,37.6098788
Ломоносов,55.7370035,37.608953
Олени,55.7372404,37.60859
Сон,55.7367449,37.6090442
Лев суздальский,55.7373354,37.6083339
Свердлов,55.7357049,37.6090802
Сталин,55.7362017,37.6087292
Аматерасу,55.7373459,37.6082159
Лев,55.7525407,37.6569365
Броненосец,55.7371678,37.6080039
Юность,55.7370743,37.6077706
Ленин,55.7359919,37.6085316
Небо,55.7370622,37.6076982
Созерцания,55.737041,37.6077625
Эрьзя,55.7364424,37.6095527
Подводный мир,55.7369353,37.6078001
Пробуждение,55.7368704,37.6071644
Мистерия,55.7367622,37.6069459
Арлекин,55.7363532,37.6063537
Торжество труда: наука и искусство,55.7331778,37.6042129
None604,55.7360208,37.6047863
None605,55.737065,37.6110113
None606,55.737087,37.6109725
None607,55.7371089,37.6109337
None608,55.7371309,37.6108949
None609,55.7371528,37.6108561
None610,55.7371748,37.6108173
None611,55.7371968,37.6107785
None612,55.7372187,37.6107398
None613,55.7372407,37.610701
None614,55.7372626,37.6106622
None615,55.7372846,37.6106234
None616,55.7373065,37.6105846
None617,55.7373285,37.6105458
None618,55.7373504,37.610507
None619,55.7365599,37.6066642
None620,55.7364738,37.6064657
Адамово яблоко,55.7364225,37.6064765
Добрый пастырь,55.7363107,37.6067983
None623,55.7368353,37.6070783
Вечером,55.7367734,37.60714
Большой мяч,55.7367719,37.6071963
Вита,55.7367115,37.6072715
Танец рыб,55.7366133,37.6074538
Наутилус,55.7366375,37.6075102
Улитка,55.7366224,37.6075906
Яблоко,55.7366994,37.6077435
Хидееси,55.7367901,37.6079099
Самурай,55.7369214,37.6081311
None633,55.7330253,37.6044484
Аргумент,55.7374592,37.6090747
Буратино,55.737364,37.6087234
Жертвоприношение,55.7374698,37.6090104
Изгнание,55.7374789,37.6091029
Любовь,55.7375272,37.6090184
Мюнхгаузен,55.7373799,37.6088494
Рождение звука,55.7375612,37.609068
Львята,55.7369221,37.6081767
Философский камень,55.7369622,37.6081685
Кормящая неродившихся,55.7369554,37.6081095
Вечер,55.7371316,37.6090197
Мать и Дитя,55.7378624,37.610224
Семья,55.737192,37.6091673
Торс,55.7335874,37.607265
Варан,55.7370204,37.6082825
Мудрец,55.7370355,37.6082409
Мишка с мячом,55.7370823,37.6084488
Прайд,55.7371827,37.6084944
Слоник,55.7371572,37.6085829
Волшебные звуки,55.7371754,37.6097305
Колыбельная гения,55.7374065,37.6100811
Менуэт,55.7373928,37.6099505
Моцарт и Сальери,55.7373958,37.6098056
Моцарт,55.7372116,37.6096742
Музыка,55.7374638,37.6097761
Посвящение Моцарту,55.7370123,37.6096849
Пушкин,55.736825,37.6094703
Репетиция оркестра,55.7371346,37.6097895
Рояль,55.7370923,37.6098459
Трон,55.7374819,37.6100041
Обнаженная,55.7367932,37.6091435
None665,55.7367691,37.6090979
Перекуём мечи на орала,55.734402,37.6059251
Оберег,55.7367676,37.6092856
Ева,55.7367494,37.6092481
Поцелуй,55.7367268,37.6092025
Реквием,55.7367072,37.6091596
Беженцы,55.7367494,37.6091756
Морские монтажники,55.7365833,37.6089503
Оплакивание,55.736606,37.6088887
None675,55.7365592,37.6088672
Солнышко,55.7375015,37.610385
Стрелец,55.7374577,37.6104976
Строительница,55.7364716,37.6090013
Слава труду,55.7363614,37.6088511
Косыгин,55.736106,37.6088283
Брежнев,55.736061,37.6086345
Маркс,55.7359666,37.6085578
Отцы и дети,55.7372099,37.6106173
Сергей Есенин,55.7366995,37.6097054
Смерть отца,55.7372507,37.6103974
Разоблачение,55.7339225,37.6065785
None692,55.7337568,37.604686
Фонтан любви_-_ фонтан живой,55.7336425,37.6047197
Рождение нового века,55.7336818,37.605352
Являться муза стала мне,55.7337066,37.6046426
Часовой,55.7342261,37.6063418
Ангел,55.7336569,37.6072007
Ночная дама,55.7336614,37.6071175
Созвездие,55.733743,37.6069767
Виртуальный куб,55.7342121,37.6070546
None702,55.7344106,37.60369
Но время_-_ время_-_ Александр Сергеевич,55.7335237,37.604538
Корабль-призрак,55.7337012,37.6073281
Сизиф,55.7337166,37.6074782
None706,55.7337913,37.6074446
Воин-призрак,55.7337897,37.6075228
Первые ласточки,55.7346438,37.6071793
Покой,55.7343296,37.6057206
None710,55.7335659,37.6056577
None711,55.7335967,37.6061385
None712,55.7338506,37.6063605
None713,55.7355845,37.6052058
None714,55.7338018,37.6045772
Центр индийской культуры,55.7880747,37.5112735
None716,55.7898289,37.5927566
Камень Harley-Davidson,55.7293696,37.6028635
Кусок троллейбуса ТролЗа-5275.05 7458,55.804721,37.5855961
None719,55.7316342,37.6023199
None720,55.7312707,37.6038599
None721,55.7321783,37.6020004
Разгром,55.7765228,37.5916951
Молодая гвардия,55.7764548,37.5919324
Голова Пушкина,55.7941414,37.6702921
Георгий Победоносец,55.7558477,37.6146414
Садовое кольцо,55.7750767,37.6326814
Пионеры-герои,55.8286017,37.6276096
Женщины с веслами,55.6937627,37.6592335
None729,55.7058933,37.7244265
Грот графа Орлова,55.7182249,37.5878885
None731,55.7972306,37.6919821
Палаты Кожевенной слободы,55.7293079,37.6507417
Штурвал корабля мечты,55.7487396,37.4859187
None734,55.6931106,37.7821589
Музей Русской Усадебной Культуры,55.689931,37.784911
None736,55.6904844,37.7871505
Двухосный вагон-музей депо ЛВЧД-1 Окт. ж. д.,55.7860164,37.6507404
Памятник доценту из к/ф Джентльмены удачи,55.7240296,37.5300974
Кот с сарделькой,55.7366651,37.6760315
Zaмания,55.7292367,37.7308716
None741,55.6316937,37.5204071
None742,55.8180731,37.3766567
Музей оптических иллюзий,55.7503075,37.5927836
Пушкинский дуб,55.7597728,37.6007325
None745,55.7793401,37.4237004
None746,55.6465194,37.4552447
Музей русского лубка и наивного искусства,55.7960677,37.7954339
Алисиум,55.761756,37.6049648
Росомахи,55.7626452,37.5823839
Олени Давида,55.7645122,37.5843783
Такины,55.7646396,37.5839582
Лошади Пржевальского,55.7645509,37.5834685
Сурикаты,55.7632146,37.5838286
Медведи,55.7643346,37.5835385
Львы,55.7639258,37.583891
Тигры,55.7644082,37.5839243
KidZania,55.790296,37.5277269
Пеликаны,55.7635042,37.5815967
Жирафы,55.7625543,37.5754747
Обезьянник,55.7627656,37.5830897
Шакалы,55.7642547,37.5833813
Гуанако,55.7617875,37.5789733
Винторогий козёл,55.7634688,37.5825711
Зебры,55.7636068,37.5838458
Чёрные антилопы,55.763681,37.584168
Гривистый волк,55.7635082,37.5751174
Еноты,55.7641587,37.5750159
Гиеновая собака,55.7635754,37.575101
Полосатая гиена,55.7639241,37.5843213
Церковь христиан-адвентистов Седьмого Дня,55.6803664,37.6370622
None773,55.7520845,37.6567264
None774,55.7521195,37.6567342
None775,55.7516863,37.6574964
None776,55.7520875,37.6575147
None777,55.7520881,37.6574587
None778,55.7542336,37.663182
Мельница,55.6993709,37.6856971
Танк,55.6995262,37.6862458
Дон Кихот и Санчо Панса,55.6995616,37.6860426
None782,55.7676553,37.5961906
None783,55.6549997,37.6656702
Аллея звёзд отечественного кинематографа,55.7239797,37.5297333
Myзeй – гyмaнитapный цeнтp «Пpeoдoлeниe» имeни H.A.Ocтpoвcкoгo,55.7642483,37.607018
None786,55.7776114,37.4319102
None787,55.7780183,37.4304114
None788,55.7810151,37.4243356
Московский государственный музей С.А. Есенина,55.7821016,37.6091568
Московский государственный музей С.А. Есенина (филиал),55.8932375,37.529104
Московский литературный музей-центр К. Г. Паустовского,55.6939222,37.7888031
Музей мёда,55.6933643,37.7881916
Музей истории шоколада и какао,55.7866193,37.6593373
None795,55.6152159,37.6835666
Место первой встречи,55.7690702,37.6496449
Baba,55.6670087,37.6677228
Храм Святых и Преподобных Кирилла и Марии,55.8664516,37.4318657
Городская ферма,55.8402079,37.6255334
истребитель миг 21,55.8069009,37.6665148
None801,55.8146046,37.4723751
Орнитарий,55.7957715,37.6672673
Храм преподобного Серафима Саровского,55.8735325,37.5591666
None804,55.7401846,37.5780735
Бывшее паровозное депо,55.7594747,37.8634993
Бывший райисполком (РИК_-_ 1929г),55.7596394,37.8550437
Горки,55.7860417,37.7491723
Хаски,55.786047,37.7492394
Паровоз,55.7712497,37.4341251
Летающие слоны,55.7807213,37.7521669
Волшебный полёт,55.7818427,37.7523935
Цепочка,55.781713,37.752415
Зорб,55.7816889,37.7519214
Призовой аттракцион,55.7810229,37.7520435
Голова 'Родины-Матери',55.8167614,37.5606531
None817,55.8612532,37.6343249
None818,55.8630444,37.6330441
None819,55.8186061,37.6789532
Мир тайн,55.6228239,37.6546088
Учёный кот,55.7382618,37.5976965
Зверюшки,55.7046549,37.6398274
РОСИЗО,55.6808367,37.7374812
Галерея 'Наши художники',55.7408625,37.5964848
Узкоколейный вагон ПВ-40,55.7164256,37.6898604
Верблюд,55.7645134,37.5833739
Дерево новобрачных,55.7463347,37.4756394
None828,55.7604777,37.7451309
Храм св. Андрея Боголюбского,55.7085878,37.7473808
None830,55.8653552,37.6297392
Галерея 'Праздник души',55.8419239,37.366496
Старый пассажирский вокзал станции Андроновка,55.7411465,37.7327191
Бывший жилой дом V типа при станции Ростокино МОЖД,55.8420935,37.6565085
Бывший железнодорожный вокзал станции Лихоборы МОЖД,55.8423901,37.5306101
Мастер и Маргарита,55.7490274,37.6562261
Страна Енотия,55.792684,37.7866934
None837,55.8166997,37.863244
Школьный музей 2-й Дивизии Народного Ополчения,55.7805004,37.7236135
Лошади,55.6614887,37.6461626
Космик,55.7449449,37.5669695
Глеб Жеглов и Владимир Шарапов,55.7700009,37.6124232
Мемориальная квартира Святослава Рихтера,55.7599628,37.597407
ГРАУНД Ходынка,55.7885334,37.4922195
85-мм пушка Д-44,55.8941689,37.5358958
Второй 'круглый' дом,55.7219814,37.5127149
Вертолёт Ми-2,55.687577,37.7695588
Музей истории усадьбы Кузьминки,55.6900474,37.793434
Самолёт МиГ-21ПФ,55.6879625,37.7693735
Аэропоток,55.6871838,37.7706181
Самолёт Ан-2,55.6874953,37.7728403
БТР-70,55.6875073,37.7690785
Облепиха - А.Бартенев,55.7470229,37.5395219
Поэтическая Экономика,55.7475896,37.5387512
Selective Mirror,55.7474815,37.5384408
Истинно-Православная Церковь,55.7630514,37.6782083
Кошка из Габрово,55.9087048,37.7453612
Гуси,55.7604011,37.5834297
Фазаны,55.7618899,37.5754614
Домашние птицы,55.7607474,37.5835075
Шиншиллы,55.7605165,37.5845106
Экзотические лягушки,55.7653519,37.57671
Пожарная каланча,55.7892659,37.6818134
Аквариум осетровых рыб,55.7632369,37.5815817
Грот Растрелли,55.7637698,37.6899199
Плотина Венеры,55.7631571,37.6891715
Триумф,55.7548702,37.6244065
None869,55.7647816,37.6207348
Центр профориентации Московского метрополитена,55.7499753,37.5405621
None871,55.9007278,37.5731615
Мать и дитя,55.6612679,37.6467153
None873,55.7424444,37.5692579
None874,55.7438953,37.5744023
None875,55.7407435,37.5715243
None876,55.7541196,37.6203847
None877,55.7477132,37.6398897
None878,55.7468863,37.6118241
None879,55.7491198,37.6242313
Деревья любви,55.7443636,37.618606
None881,55.7304998,37.6023465
None882,55.738182,37.6085558
None883,55.7415266,37.6129358
None884,55.7434412,37.6085281
None885,55.7779759,37.5858995
None886,55.7590098,37.6192327
None887,55.7413983,37.5708641
None888,55.8316708,37.6274094
Мартышка и очки;Осёл;Волк и ягнёнок,55.7642592,37.5912969
Слон и Моська;Ворона в павлиньих перьях;Две собаки,55.7641933,37.591144
Квартет; Дуб и свинья; Петух и кукушка,55.7641274,37.5909911
Зеркало и обезъяна; Ворона и лисица; Волк и журавль,55.7643251,37.5914498
None893,55.7556614,37.4266449
Музей ПАО КМЗ,55.831234,37.3315264
Районный краеведческий музей 'Ивановское',55.7724825,37.832787
Храм Сергия и Германа Валаамских,55.7750213,37.5895184
Храм Александра Невского,55.7024069,37.6683656
Подводный обитаемый аппарат «Аргус»,55.7559193,37.6123444
None899,55.6908977,37.5611561
None900,55.7690454,37.62084
Церковь Владимира равноапостольного в Отрадном,55.8705031,37.6213939
Выставочный комплекс Российской академии художеств,55.7410324,37.5928938
Выставочный центр «Рабочий и колхозница»,55.8281909,37.6466344
Героям фильма «Офицеры»,55.7278689,37.5914885
Храм святого равноапостольного великого князя Владимира,55.6952659,37.7585303
Церковь евангельских христиан-баптистов,55.754511,37.6460773
Мемориальный музей-квартира А.М. Горького,55.7582421,37.5963004
Музей кинозвёзд,55.7542692,37.7753984
None909,55.8227542,37.6444227
Городская усадьба братьев Гандуриных,55.7435921,37.5954274
Героям фильма «Они сражались за Родину»,55.7270725,37.5909189
Экзоопарк,55.9101828,37.5421904
None913,55.7318082,37.6039155
Электростатическая машина Ван де Граафа,55.7847416,37.7019731
None915,55.8350536,37.6223577
None916,55.8347584,37.6217757
Боец с быком,55.837172,37.619228
Музей истории агрофирмы 'Белая Дача',55.6604653,37.8503854
None919,55.6670796,37.6683156
None920,55.7093447,37.7813908
None921,55.8590072,37.6939543
Дом-музей Зураба Церетели,55.6504458,37.3230512
None924,55.7520155,37.6776338
Нагорная,55.6763735,37.6002856
None926,55.7621103,37.6799985
Музей ОСАО «Ингосстрах»,55.7430911,37.6265752
None928,55.7422358,37.6259034
None929,55.7058409,37.3219933
Домовой,55.6146037,37.4712519
Дом вверх дном,55.7505852,37.5947334
None932,55.7670387,37.6136739
None933,55.7670108,37.6136833
None934,55.7670605,37.6137598
None935,55.7669964,37.6137195
None936,55.767007,37.6137531
None937,55.7670206,37.6137785
None938,55.7670507,37.6137973
None939,55.7671669,37.613627
None940,55.7671345,37.6136029
None941,55.7670568,37.6136417
None942,55.7671028,37.6136377
None943,55.7670583,37.6137195
None944,55.7671081,37.613737
None945,55.7671813,37.6137222
None946,55.7672786,37.6137437
None947,55.7673057,37.6138161
None948,55.7673284,37.6138805
Похищение Европы,55.7106542,37.6548689
None950,55.8984107,37.5744362
None951,55.8983716,37.5742783
None952,55.8893539,37.379232
Контактный зоопарк,55.7609883,37.5827157
None955,55.7780596,37.4336464
Майя Плисецкая,55.7618934,37.6143218
None957,55.6236016,37.7054033
None958,55.7110669,37.5478718
None959,55.7098141,37.5516321
Замания,55.5942463,37.3520243
None961,55.8503806,37.6495744
Осень,55.7129025,37.5837236
Кариатиды,55.7121155,37.5828762
None964,55.6837302,37.3362301
None965,55.686402,37.3342909
Т-34,55.7848676,37.6166242
Д-1,55.7850878,37.616753
None968,55.6171462,37.6954356
None969,55.6170894,37.6947778
None970,55.737108,37.4585938
Голубой баран,55.7632616,37.5826105
Бакланы,55.7635684,37.5814994
Галерея Гари Татинцяна,55.7500257,37.6499987
Знак 'Запрещено разговаривать с незнакомцами',55.7638367,37.5932582
None976,55.817883,37.4801812
Паровоз в разрезе,55.8137182,37.5303875
None978,55.742703,37.6099176
None979,55.8004186,37.4700201
Музейно-просветительский центр МЧС России,55.7419942,37.4709588
None981,55.8238044,37.6716269
None982,55.8197406,37.6771711
None983,55.8665996,37.6292652
None984,55.8429638,37.5139441
Морской аквариум,55.7598352,37.6446372
Ботанический сад Дворца пионеров,55.702453,37.5540162
None987,55.8191432,37.5025708
None988,55.8183247,37.6821146
None989,55.8184543,37.6812509
Школьный историко-краеведческий музей 'История образования в городе Реутове',55.7729008,37.8477658
None991,55.6354772,37.5585828
Дача_-_ где жил А.П.Довженко,55.6506127,37.3221821
Дача_-_ где жила Надя Леже,55.650419,37.323212
Дача_-_ где жил А.З.Рубинов,55.6506854,37.3208839
Алмазный фонд,55.749614,37.613758
None996,55.7392159,37.6303451
Ансамбль городской усадьбы Матвеевых,55.7403123,37.6287041
РотФронт,55.7339135,37.6319684
Школьный музей С. М. Прокудина-Горского,55.7686325,37.5694414
None1000,55.8263284,37.4722405
None1001,55.8260587,37.4663541
None1002,55.844186,37.4718607
None1003,55.8513451,37.4682723
Идол,55.6233938,37.5704486
Гулливер,55.8283514,37.3227936
Музей-квартира Владимира Маяковского,55.7626492,37.5667123
Музей Моды_-_ музейно-выставочный центр,55.754494,37.6250488
Ледяная пещера,55.7516275,37.629121
Подземный музей,55.7500056,37.6288121
Заповедное посольство,55.7517745,37.6282163
Большой амфитеатр,55.7512737,37.6300696
Музей истории РУДН,55.6493583,37.5033447
Луг,55.7520643,37.6304432
Северные ландшафты,55.7519513,37.6291634
Берёзовая роща,55.7512122,37.6280764
Смешанный лес,55.7510054,37.6262962
Хвойный лес,55.7506312,37.6270735
Прибрежный лес,55.7501641,37.6259061
Степь,55.7505633,37.6285324
Малый Амфитеатр,55.7506177,37.6308779
Стеклянная кора,55.7512311,37.6311519
Видовой холм,55.7510759,37.631256
Китайгородская стена,55.7522465,37.6328716
None1026,55.8906915,37.6816549
Парк скульптур,55.735844,37.6077819
None1028,55.825345,37.615092
None1029,55.8254452,37.6150853
None1030,55.8255469,37.615086
None1031,55.8256452,37.6150846
None1032,55.8257461,37.615086
None1033,55.8258424,37.615087
None1034,55.825945,37.6150853
None1035,55.82598,37.6146599
None1036,55.8259269,37.6142304
None1037,55.8258275,37.6142223
None1038,55.8257265,37.6142237
None1039,55.8256258,37.6142206
None1040,55.8255395,37.6142216
None1041,55.8254245,37.614218
None1042,55.8253258,37.6142163
Союз евангелистских баптистов,55.6928418,37.6234548
Центральная община Новоапостольской церкви,55.6935544,37.6223957
Музей Московской окружной железной дороги,55.7668259,37.5176004
Историческое здание вокзала станции Пресня МОЖД,55.7667602,37.5176686
None1047,55.6884887,37.7431538
Рекламный вариант автомобиля ЗАЗ 965А «Запорожец»,55.8029493,37.5327345
Norway Park,55.829505,37.3223402
None1050,55.7135128,37.5848948
Аллея правителей,55.7565478,37.636425
Храм Воздвижения Креста Господня в Красном селе,55.7824914,37.6644724
Храм Иверской иконы Божией Матери при Восточно-Европейской нефтяной компании г. Москва,55.7766696,37.6320973
Храм иконы Божией Матери «Достойно есть — Милующая» при Московской Морозовской детской клинической больнице,55.7249523,37.6174009
Храм иконы Божией Матери «Знамение»,55.7537726,37.6092953
Храм иконы Божией Матери «Неопалимая Купина»,55.7424566,37.5938782
Храм Константина и Елены,55.7630503,37.6641503
Храм Петра_-_ митрополита Крутицкого,55.7511023,37.6508783
Храм Покрова Пресвятой Богородицы,55.8539591,37.4023675
Храм Святителей Московских в Посланниковом переулке,55.7703855,37.6832448
Храм сщмч. Порфирия Ефесского,55.8228033,37.6074009
Храм Троицы Живоначальной,55.638409,37.5192686
Храм царевича Димитрия Угличского,55.7233242,37.6004126
Кадашевская слобода,55.7430156,37.6229033
Московский выставочный зал 'Галерея А3',55.7491752,37.594517
Государственный выставочный зал 'Ковчег',55.823479,37.5656087
None1068,55.8407342,37.4892887
Живая экспозиция «Тяньшанский медведь»,55.8189831,37.6908729
Музей парка 'Сокольники',55.7923649,37.6767161
None1071,55.7782524,37.6408271
None1072,55.7760099,37.5461964
Картинная галерея Василия Нестеренко,55.8676968,37.652392
Музей-культурный центр 'Интеграция' им. Н.А. Островского,55.7671229,37.8277701
Выставочные залы на Арбате,55.7469328,37.5854824
Музей-мастерская народного художника СССР Д.А. Налбандяна,55.7626272,37.6111323
None1077,55.6470833,37.7431548
None1078,55.6471106,37.7430099
None1079,55.6470243,37.7432433
None1080,55.6471439,37.7432325
Virt Games Club,55.6957317,37.3264209
None1082,55.7487524,37.6266834
None1083,55.7485812,37.6307943
None1084,55.89034,37.6918817
None1085,55.8892119,37.6903582
None1086,55.7784572,37.4484527
None1087,55.7746085,37.4398952
None1088,55.7456249,37.5735226
None1089,55.7344868,37.5979813
None1090,55.7334353,37.6003218
None1091,55.7668461,37.6925386
None1092,55.7126817,37.5790759
None1093,55.8775483,37.5308713
None1094,55.8832649,37.5320438
None1095,55.8804948,37.530151
None1096,55.8198443,37.6117108
None1097,55.7445838,37.6053681
None1098,55.7494892,37.6241003
None1099,55.7495104,37.6248612
None1100,55.7486159,37.6241867
None1101,55.7486386,37.624923
Музей скорой помощи,55.7737618,37.6373166
Советская живопись,55.7778614,37.5557422
Амурские тигрята,55.7670794,37.6418322
None1105,55.738525,37.5958731
None1106,55.751277,37.630824
None1107,55.7516033,37.6275232
None1108,55.7292156,37.5779481
None1109,55.7291929,37.5777845
None1110,55.7302974,37.5773145
None1111,55.7302815,37.5772742
Бросающий мяч,55.8093008,37.5256267
Лужковские фальшивые ворота,55.7262272,37.5878857
Мальчик с белкой,55.6536897,37.4826302
None1117,55.7460731,37.5449226
Три богатыря,55.7175174,37.6235854
Ковчег,55.8928561,37.46071
None1120,55.7272521,37.5573783
Макет Москвы,55.8343718,37.6300353
None1122,55.7526076,37.6279592
None1123,55.752567,37.6298181
None1124,55.7280217,37.558573
ДОТ времён Великой Отечественной войны,55.6362611,37.4960277
Музей кино,55.8396088,37.6167881
Арт-холл Выхино,55.7080753,37.8192644
Варшавка,55.6587919,37.6201661
Наследие,55.5839224,37.6859392
L,55.788845,37.613809
RuArts,55.7410396,37.6004162
21,55.7559294,37.6658512
Риджина,55.7563421,37.6650891
11.12,55.7561009,37.6650034
pop/off/art,55.7555447,37.6649176
Центр Искусств,55.7449741,37.6058069
скульптура «мальчик с поднятой рукой»,55.8022307,37.5501884
Музей-квартира А.Б. Гольденвейзера,55.7632313,37.6070257
Музей-квартира Н.С. Голованова,55.7583598,37.6058437
Сокольники и Флот,55.7979506,37.6873996
ФотоЛофт,55.7556711,37.6644042
Vincent,55.7621678,37.6364408
XL,55.7562679,37.6648945
K35,55.7333487,37.5638592
Эритаж,55.7641868,37.6173977
Галерея На Чистых Прудах,55.7635902,37.6422201
Black Dog,55.7329365,37.6450864
Fine Art,55.7555657,37.6652032
Проун,55.7558333,37.6643614
Galerie Iragui,55.734522,37.6174739
Крокин галерея,55.7406665,37.6261647
Кино,55.7541168,37.5920561
ГРАУНД 'Песчаная',55.7936284,37.5126084
Open Gallery,55.7541205,37.5873192
ТНК Арт,55.7763344,37.6034685
Expo-88,55.7546778,37.6366301
Lavrushin,55.7412979,37.5918437
Веллум,55.7413776,37.5919854
Семенов,55.7412302,37.5915941
MustART,55.7586547,37.6042288
Be in Art,55.7970567,37.7135133
Musivum,55.7205235,37.6362354
73 улица,55.7581991,37.5489278
Галерея классической фотографии,55.7315663,37.5593437
Городская усадьба Х.Г. Смирнова - А.Д. Лопатиной,55.7388644,37.5825524
Жилой дом Г.А. Палибина,55.738797,37.577181
None1168,55.7310599,37.5583123
None1169,55.7599711,37.6071695
None1170,55.7464032,37.5972801
None1171,55.7464218,37.5972804
None1172,55.7464404,37.5972806
None1173,55.746459,37.5972808
Одуванчики,55.9057922,37.7082992
Нептун с дельфином,55.8034188,37.5244992
None1177,55.723307,37.6590268
Бывший конный двор,55.5840591,37.8485212
Вид на храм,55.5907354,37.8549569
Выставочный зал РОО 'Товарищество живописцев МСХ',55.7737188,37.5902769
на Шипиловскую плотину,55.6292994,37.6876608
Нижний Царицынский пруд к Шипиловской плотине,55.6228391,37.6772739
обзор нижнего Царицынского пруда,55.630898,37.6910836
Аврора,55.612429,37.6815973
Сфинкс,55.6124426,37.6815772
Летчик,55.8244982,37.3289761
Пограничник,55.8250422,37.3287937
Музей Новогиреево,55.7488072,37.802641
None1192,55.7422721,37.8797636
Особняк Спиридонова,55.7625241,37.6061634
Мечеть 'Ярдэм',55.8563936,37.5925219
None1195,55.7494496,37.6293802
Выставочный зал 'АРТ-Измайлово' (филиал Музея наивного искусства),55.7960659,37.7957556
Городская усадьба Бахрушина К.П.,55.7355388,37.6331238
Набережная,55.5873937,37.7625237
Я люблю Красногорск,55.8025669,37.320123
Господи_-_ помоги России,55.870352,37.364488
Музей-квартира актерской семьи М.В. и А.А. Мироновых - А.С. Менакера,55.7463526,37.5926681
None1202,55.747398,37.5961818
None1203,55.747406,37.5960638
None1204,55.7474762,37.5955367
None1205,55.7474112,37.5957888
None1206,55.7475418,37.5958116
None1207,55.7474645,37.5959987
Zамания,55.8447405,37.6599992
Усадьба коломенского крестьянина,55.6739135,37.6706919
Усадьба кузнеца,55.6748163,37.6713871
Соколиный двор,55.671994,37.6808513
Водяная мельница,55.6721094,37.6802759
Голландский домик царя Петра I,55.672095,37.6795445
None1214,55.7721857,37.8379823
Утиный остров,55.6676907,37.5305031
None1216,55.7511452,37.8644145
None1217,55.7101433,37.4446383
Музей акварели,55.6339478,37.4819364
None1219,55.8645742,37.6344313
Смотровая площадка Panorama360,55.7499443,37.5376812
Светящийся глобус,55.5854633,37.7355681
None1222,55.7532396,37.6499949
Содружество,55.7468904,37.5666529
Школьный историко-краеведческий музей,55.749013,37.8566099
None1225,55.8314878,37.5168675
Часовня Василия Великого,55.8550939,37.5608841
Город детства,55.5913378,37.7530615
Центральный музей МЧС России,55.7595451,37.6222911
None1229,55.771017,37.838269
Art4,55.7578439,37.6029825
None1231,55.8277842,37.329542
Музей-мастерская Людмилы Гурченко,55.7657047,37.5949869
Центр Гиляровского,55.763473,37.6153462
dali elephants,55.7413731,37.6120185
Подпольная типография 1905-1906 гг.,55.7817439,37.5931482
None1236,55.7929023,37.7952647
None1237,55.6099644,37.7245908
None1238,55.7470149,37.6006683
None1239,55.7470706,37.6006781
None1240,55.7470679,37.6007086
None1241,55.7470438,37.6007135
None1242,55.7469956,37.600705
None1243,55.7469785,37.6007037
None1244,55.7464674,37.600566
None1245,55.7464817,37.6007521
None1246,55.7467405,37.6005459
None1247,55.7469644,37.601033
Международный музей нумизматики Вагита Алекперова,55.7493962,37.5973029
None1249,55.8337936,37.3681435
None1250,55.8373814,37.3777598
Гнездование водных птиц,55.6279316,37.7660802
None1252,55.7524481,37.4269896
Rohini gallery,55.8079483,37.4965601
Кому и кобыла невеста,55.7217023,37.5631276
Усадьба Охотниковых,55.7408059,37.5904968
None1256,55.7158058,37.5469753
None1257,55.7269009,37.5467245
None1258,55.7275864,37.5485083
None1259,55.7281724,37.5477788
Храм Петра и Февронии,55.6520748,37.7772331
Музей танкистов и танкостроителей,55.8830411,37.4913559
None1262,55.8941272,37.5381267
Музей восстания машин,55.7072488,37.7262124
None1264,55.8169408,37.3326816
None1265,55.8169513,37.3324013
None1266,55.5999026,37.7213066
None1267,55.6010938,37.7363663
Домик Чехова,55.7717013,37.6040857
На Солянке,55.7546034,37.6384437
Галерея Александра Шилова,55.7490545,37.608298
None1271,55.8311562,37.6559758
None1272,55.5999369,37.7163591
Музей оружия,55.7942758,37.7492257
None1274,55.6044654,37.7448731
None1275,55.6047263,37.7446753
Музей Великий почин,55.762105,37.7294165
Варламу Шаламову,55.7789534,37.6129447
Музей истории астрономии в Московском университете,55.7583623,37.5681795
Временный Храм св.прп. Александра Свирского.,55.7192459,37.7306986
None1280,55.8807485,37.5325209
Яндекс,55.735018,37.5880185
Девушка с собачкой,55.6896502,37.685341
Девушка с фотоаппаратом,55.6897776,37.685748
Девушка с велосипедом,55.689887,37.6861864
Музей автомобильных историй,55.8319329,37.5187161
None1286,55.8208659,37.3814003
None1287,55.6177417,37.7596109
None1288,55.6078585,37.7896187
С. С. Бодров,55.8345488,37.3276657
None1290,55.74204,37.6143042
None1291,55.8200773,37.3419376
None1292,55.6056359,37.741174
None1293,55.6041207,37.7372337
Панда-парк,55.8368321,37.3624416
None1295,55.8199282,37.3398402
Дом-музей архитектора Фёдора Шехтеля,55.6529074,37.3528379
None1297,55.8050196,37.5864816
Музей Московских стрельцов «Стрелецкие палаты»,55.7411623,37.6224044
None1300,55.7548453,37.606854
Детская книга,55.7934721,37.6127871
Пожарники,55.7784564,37.629799
Двенадцать слонов,55.7749178,37.821277
None1304,55.7748571,37.8211837
None1305,55.8590777,37.4528646
None1306,55.859186,37.4527493
None1307,55.8602578,37.4516898
None1308,55.8603662,37.4519527
None1309,55.7363697,37.6651007
None1310,55.8790393,37.5310779
None1311,55.8816015,37.5297207
Крым: Балаклава,55.7630085,37.6542418
Крым: Гаспра,55.7631987,37.6546369
None1314,55.8418454,37.354063
None1315,55.8419116,37.3540465
None1316,55.8419085,37.3541618
Артиллерийский двор,55.755801,37.6188585
None1318,55.7599714,37.6445473
None1319,55.5912218,37.7521198
None1320,55.7247351,37.6717189
None1321,55.6349041,37.7477937
None1322,55.6348676,37.7476319
None1323,55.6335155,37.7482747
ПандаПарк (веревочный парк),55.7953149,37.670069
None1325,55.8172227,37.5294171
None1326,55.8173009,37.5296547
25 кадр,55.7347892,37.6336777
Колоннада,55.5739491,37.3538077
None1329,55.87894,37.5310859
Городская усадьба Ф.Е. Сычева-Калининых,55.773193,37.6795656
None1331,55.7720545,37.6789621
None1332,55.8240703,37.3260981
Собрание,55.7506478,37.6419228
Тапан,55.7878127,37.6218994
На Страже Родины,55.7848826,37.6172411
None1337,55.7893829,37.7992129
None1338,55.7897946,37.7994342
None1339,55.8439973,37.5546263
Doll's Lane,55.7941903,37.7491613
The Ugly Swans,55.7377565,37.6279351
None1342,55.8020349,37.3233718
Буддийский Центр Рипа,55.7684985,37.6763598
None1344,55.7206516,37.5392345
None1345,55.8313826,37.6589558
Остатки фундамента храма Николая Чудотворца в Столпах,55.7597659,37.6361088
Музей авангарда на Шаболовке,55.7129053,37.6104745
Nadja Brykina Gallery,55.7635877,37.63603
Зелёный лось,55.8227111,37.8242482
Музей экслибриса и миниатюрной книги,55.7609189,37.6230226
None1351,55.8453586,37.5673252
Челомей В. Н.,55.7610349,37.8603815
Artplay,55.7522132,37.6687261
None1354,55.7305824,37.6293942
None1355,55.7379234,37.6625709
Холм на Живописной,55.7999322,37.4496149
Во имя Родины,55.785707,37.4573976
None1358,55.6771792,37.7532603
None1359,55.6767369,37.7533673
None1360,55.6770642,37.7528322
None1361,55.6983441,37.7640688
None1362,55.7907332,37.5293797
55°44′28″ с. ш. 37°35′34″ в. д.HGЯO Государственный музей нового западного искусства,55.7409388,37.5927539
Государственный музей Л. Н. Толстого,55.7423932,37.5974458
Музей Отечественной войны 1812 года,55.756272,37.6186895
Музей археологии Москвы,55.7563836,37.6171929
None1367,55.675042,37.5719044
Макрокосмос-микромир,55.8233514,37.6455973
Выставочный зал Московского союза художников,55.7649971,37.611284
None1370,55.865082,37.3430845
None1371,55.8441664,37.3484686
None1372,55.6681275,37.4884901
Женщина и мода,55.7793251,37.7215727
None1374,55.7566659,37.566548
Тушинская Евангельская Церковь,55.8395651,37.4087235
Музей истории Бутырской тюрьмы,55.7837601,37.5935465
Лаврушинский15,55.7418493,37.6215032
None1378,55.5996927,37.7093723
None1379,55.7112083,37.7363515
None1380,55.7221948,37.7371037
None1381,55.7321422,37.7333839
None1382,55.7637159,37.6350604
Музей-квартира Александра Солженицына,55.7640864,37.6092149
None1384,55.849367,37.3642673
None1385,55.849416,37.3641439
None1386,55.8497352,37.3636651
None1387,55.8498903,37.363354
None1388,55.8499407,37.3629382
None1389,55.8498872,37.3628591
Церковь «Ковчег»,55.6331045,37.522686
None1392,55.7543773,37.5992484
Мемориальный музей-квартира А.И. Сумбатова-Южина,55.7642796,37.5985984
Грот,55.8317462,37.5414356
Мемориальная музей-квартира Г.М. Кржижановского,55.7462895,37.6333277
Еврейский музей и центр толерантности,55.7892592,37.6081055
None1397,55.9129725,37.3544779
Лиса,55.7168821,37.6216786
None1400,55.8327639,37.5481846
None1401,55.8328391,37.5486005
None1402,55.8326935,37.5487116
None1403,55.8326047,37.5482744
None1404,55.8666902,37.4766076
Музей военной формы и одежды,55.756452,37.6367809
Осьминог на асфальте,55.6832306,37.6987065
None1407,55.7806852,37.5595264
Благая весть,55.8204263,37.7843465
None1409,55.6076921,37.7080607
None1410,55.8363397,37.6364887
Народный музей музыкальных инструментов,55.7813261,37.6022422
None1412,55.7471772,37.596332
None1413,55.7492638,37.597
Omelchenko Gallery,55.7494779,37.5950566
None1415,55.7508553,37.5962406
None1416,55.731691,37.6235484
Усадьба резчика по дереву,55.6746138,37.6713144
Усадьба Гробовых,55.6737948,37.6698453
None1419,55.756507,37.6404754
Черепаха,55.716883,37.6218723
None1421,55.7671315,37.4234542
Гурудвара,55.6804149,37.6234728
None1423,55.7557588,37.6076095
None1424,55.7555402,37.6082641
None1425,55.7613823,37.5795837
Мини-зоопарк,55.7612511,37.6481595
М. В. Водопьянов,55.788875,37.5228145
Зеркальный лабиринт,55.7861812,37.5287272
None1429,55.757213,37.6403001
None1430,55.7572009,37.6399809
Лобный столб,55.667666,37.6680012
Серпентенит,55.7557686,37.6127176
Угольный комбайн,55.7558116,37.6126479
None1434,55.7459398,37.6345366
Бывшее здание Перервинской духовной семинарии,55.670866,37.7202543
None1436,55.7620149,37.5855615
Винни Пух и Пятачёк,55.8211582,37.6012603
Шапокляк,55.8211505,37.6017363
Пёс Шарик,55.8211606,37.6009625
Львёнок и Черепаха,55.8211493,37.6019821
Карлсон,55.82116,37.6011449
Крокодил Гена,55.8211511,37.601676
Ослик Иа,55.8211579,37.6012893
Дядя Фёдор,55.8211614,37.6009295
Волк,55.8211552,37.6015154
Чебурашка,55.8211506,37.6017075
Почтальон Печкин и кот Матроскин,55.8211609,37.6008938
Заяц,55.8211545,37.6014291
Заяц и волк,55.82115,37.601906
None1451,55.6440787,37.6748119
None1452,55.6326339,37.7484979
Кот Матроскин,55.8211842,37.6014284
None1454,55.7134957,37.462774
None1455,55.7150912,37.4621826
None1456,55.7228292,37.8484154
None1457,55.7643194,37.6574238
None1458,55.7715945,37.7523516
None1459,55.6154754,37.7308702
None1460,55.63794,37.7491659
Юлия Началова,55.6950808,37.4145386
Храм иконы Богоматери «Целительница» Валаамского подворья,55.8291175,37.6669356
None1463,55.6456911,37.7131393
None1464,55.7262427,37.5980137
None1466,55.7304254,37.6005591
Интерактивный музей оружия,55.7158004,37.6118001
Единство,55.8043836,37.7916553
Байкер,55.914273,37.827356
None1470,55.6416963,37.7474141
None1471,55.6390373,37.7484629
None1472,55.661964,37.7617831
None1473,55.6598731,37.7602384
Дом-музей Героя Советского Союза Зайцева Ивана Петровича,55.6217984,37.6836264
None1475,55.7270145,37.6047801
Ленин и рабочие,55.7752012,37.5749288
None1477,55.89623,37.3937682
None1478,55.8961052,37.3942007
Тарантас с конями,55.6433908,37.5250916
None1480,55.6889981,37.7598743
None1481,55.692826,37.7882346
Павлины,55.7613935,37.6017755
Пегас,55.7616319,37.6019914
None1484,55.7476758,37.4768444
None1485,55.7476563,37.4768259
None1486,55.7476412,37.4768106
None1487,55.75262,37.6569486
Дионис,55.7522207,37.6583675
None1490,55.5874178,37.3774047
Панда Парк,55.7903588,37.528896
Уюдинение,55.7525094,37.6680787
Мини-парк «Андромеда»,55.8855925,37.4097938
Моторы Октября,55.7549098,37.6753265
None1495,55.7539756,37.6027214
None1496,55.7557577,37.6035902
None1497,55.7809867,37.4259635
Презервация Тишины,55.7241693,37.5977331
Верхнеяузcкие болота,55.8948897,37.7729018
None1500,55.8177296,37.3206137
Памятник Ерунде,55.8178766,37.5089539
Часовня Святителя Тихона,55.6591193,37.7185421
Дракон,55.8616511,37.4520405
None1504,55.74577,37.6069567
None1505,55.7458081,37.6068383
Вечная любовь,55.7368313,37.5934379
None1507,55.7429544,37.5255847
None1508,55.7427196,37.525162
None1509,55.7426749,37.5252644
Я ♥ Москву,55.5917085,37.6746001
Белки-спортсменки,55.5896523,37.6787066
Совхоз Заречье,55.6960433,37.397
None1513,55.6066507,37.6851285
None1514,55.7546128,37.6084676
None1515,55.7545705,37.6084328
Orekhov,55.7679093,37.6241612
None1517,55.7367002,37.6310809
None1518,55.740967,37.6293936
Голубь Мира,55.6235047,37.609793
None1520,55.6235187,37.6097576
None1521,55.627991,37.6112118
Ротонда,55.6048303,37.6269233
None1524,55.7921885,37.4260841
None1525,55.8731373,37.4813964
Церковь «Новый Завет»,55.9112737,37.8221246
Я люблю Бибирево,55.8981072,37.6051482
Материнская Душа,55.6065305,37.5333591
None1529,55.8655355,37.4691129
None1530,55.7486761,37.5326992
None1531,55.7729436,37.6122
None1532,55.7307037,37.6044261
Шишка,55.6200619,37.6565248
Альпинист,55.8344704,37.6129335
Альпинистка,55.8346143,37.6129121
Газификация,55.8325679,37.6202546
None1538,55.8373586,37.6142746
None1539,55.8289598,37.3219457
Музей истории телесных наказаний,55.7502455,37.5945939
Лесная сказка,55.5851973,37.5475654
Музей Златоустовского монастыря,55.759046,37.6341096
Государственный музей истории российской литературы имени В.И. Даля,55.7358667,37.5919278
Союз-Аполлон,55.914114,37.8119504
Деревянный шар,55.5877401,37.6795784
Большое приключение с хаски,55.8157239,37.67802
None1547,55.740903,37.627905
None1548,55.7683198,37.647232
None1549,55.8383327,37.3328322
ПандаПарк,55.6005639,37.7052974
None1551,55.7728468,37.6846316
None1552,55.7950858,37.666591
Качели 12+,55.7944429,37.6712843
None1554,55.7934594,37.6757583
None1555,55.7915206,37.7548391
Глаз,55.7450493,37.5951035
Истребитель МиГ-29,55.6760402,37.8741086
Музей истории медицины МГМСУ,55.774989,37.6045181
Музей истории органов внутренних дел Москвы,55.7672567,37.6317868
None1560,55.7506222,37.4909748
None1561,55.7336973,37.8478176
В. И. Ленину,55.7906662,37.6608094
Восточная Галерея,55.7686879,37.6272377
Взгляд ребёнка,55.7688086,37.6282503
Сейф желаний,55.8009338,37.5285048
Благовестие,55.7392436,37.8533923
None1567,55.812828,37.5520259
Вертолеты Миля,55.7921138,37.6798063
None1571,55.743612,37.7971114
Главный дом усадьбы Братцево,55.8487769,37.3978363
Павильон №57 'Россия - моя история',55.8347884,37.6247031
Павильон №70 «Москва»,55.8290756,37.6405479
Павильон №1_-_ «Центральный»_-_ «Дом народов России»,55.8287924,37.6328906
Павильон №38_-_ 'Рыболовство',55.8392659,37.6209392
Павильон № 55 'Электрификация',55.8350418,37.6227892
Иоанно-Предтеченский монастырь,55.7538134,37.6401321
Храм Казанской (Песчанской) иконы Божией Матери,55.7896384,37.8014746
Музей музыкальной культуры,55.7746115,37.5992054
Опекунский совет,55.7515263,37.6399862
Крутицкое подворье,55.7285998,37.6576583
Донской монастырь,55.7131111,37.6004594
Храм Благовещения Пресвятой Богородицы,55.624162,37.645963
Часовня Иконы Божией Матери Феодоровская,55.8521658,37.3955646
Храм Иконы Божией Матери Утоли Моя Печали,55.6483297,37.7472371
Храм Рождества Христова в Митино,55.8607781,37.3677476
Мемориальная мечеть,55.7254162,37.4968784
Синагога в Отрадном,55.8553567,37.5919227
Храм святителя Николая Мирликийского,55.8398744,37.4653325
Храм святителя Иннокентия_-_ митрополита Московского в Бескудникове,55.8573853,37.5612612
Храм преподобного Серафима Саровского в Кунцеве,55.7231059,37.4341016
Храм Рождества Пресвятой Богородицы в Крылатском,55.7557113,37.4258272
Павильон №2_-_ представительство Республики Грузия,55.8287344,37.6309583
Павильон №68 «Армения»,55.8310439,37.6333713
Павильон №67_-_ 'Карелия'_-_ до 1999г. «Печать»,55.8311941,37.6323083
Павильон №64_-_ «Оптика»,55.8329763,37.6285952
Павильон №58_-_ 'Украина'_-_ до 2002 г. 'Земледелие',55.8327021,37.6266034
Павильон №22_-_ 'Плодоовощеводство',55.8324801,37.6161134
Павильон №18 «Республика Беларусь»,55.8319752,37.6251403
Павильон №11_-_ 'Казахстан',55.8304067,37.629037
Павильон №14_-_ 'Вычислительная техника',55.8313798,37.6274564
Павильон №15_-_ 'Радиоэлектроника и связь',55.8317335,37.6263864
Павильон №12_-_ 'Выставочный центр профсоюзов',55.8304995,37.6277487
Павильон №13_-_ 'Здоровье',55.8311268,37.6279459
Павильон № 52 'Механизация_-_ электрификация',55.8373286,37.6212179
Павильон № 54 'Крупный рогатый скот',55.8366777,37.6222971
Павильон №46_-_ Администрация политехнического музея,55.8381185,37.6274415
Павильон №71_-_ «Атомная энергия»,55.829727,37.6339234
Павильон №66_-_ «Культура»,55.8318811,37.6315569
Павильон №6_-_ «Химия»,55.8292329,37.6295778
Павильон №4 «Кыргызстан»,55.8286624,37.6300519
Павильон №5_-_ «Физика»,55.8288952,37.6295421
Павильон №8_-_ «Юные натуралисты»,55.8287933,37.6270807
Круговая кинопанорама,55.8270346,37.6299993
Павильон №7_-_ «Семена»,55.8276681,37.626437
Павильон №62_-_ «Охрана природы»,55.8349183,37.6276005
Павильон № 60 «Потребительская кооперация»,55.8337638,37.6281435
Павильон №59_-_ «Зерно»,55.8330468,37.6275616
Павильон №10_-_ «Стандарты»,55.8294865,37.6293268
Павильон №21_-_ 'Газовая промышленность',55.8324106,37.61976
Музей наивного искусства,55.7498715,37.8134084
Российский Союз Евангельских Христиан-баптистов - Церковь Благая Весть,55.8234264,37.5149977
Часовня 12 Целителей,55.7563283,37.8134398
Храм Спаса Нерукотворного образа,55.757632,37.8141212
Храм иконы Божией Матери 'Знамение',55.7377546,37.4627751
Церковь Петра и Павла,55.751366,37.6435557
Государственный центральный музей современной истории России,55.7665536,37.6011197
Церковь Рождества Пресвятой Богородицы,55.6549863,37.4346006
Государственный геологический музей им. В. И. Вернадского,55.7559985,37.6120072
Зоологический музей МГУ,55.755724,37.6089351
Церковь Владимира_-_ митрополита Киевского,55.9155941,37.8315945
Часовня Александра Невского,55.6773554,37.8699692
Храм Большое Вознесение у Никитских ворот,55.7576284,37.5958816
Дом Г. А. Тарасова,55.7625017,37.5912064
Историко-краеведческий музей,55.9125441,37.8546895
Ивановский зал РГБ,55.7505785,37.608419
Усадьба князей Голицыных,55.7466032,37.6036578
Усадьба Лопухиных,55.7468687,37.6030357
Усадьба Вяземских-Долгоруковых,55.7479888,37.6036056
Государственный музей архитектуры им. А.В. Щусева,55.7525921,37.6067564
Музей Героев,55.6817217,37.583582
None1644,55.6452794,37.4074808
Дом-музей Матвея Муравьева-Апостола,55.7672635,37.6643513
Особняк К. А. Гутхейля,55.7440227,37.5942847
Палаты князя Андрея Друцкого,55.7485952,37.5974155
Экспозиция военной техники,55.7258939,37.5024454
Церковь Троицы Живоначальной,55.7599356,37.861286
Музей народной графики,55.7691031,37.6342255
Дом культуры имени С.М. Зуева,55.7787475,37.5906445
Церковь Успения Пресвятой Богородицы в Троице-Лыкове,55.7905472,37.4060167
Музей киноконцерна «Мосфильм»,55.7229739,37.5304854
Церковь Преподобного Пимена,55.7785582,37.604717
Центральный музей МВД России,55.7805731,37.604151
Храм Николая Чудотворца,55.7445428,37.6446828
Церковь Филарета Милостивого,55.7548147,37.5397578
Храм Девяти Мучеников Кизических,55.7544836,37.5795856
Дом Наркомфина,55.7574846,37.581289
Странноприимный дом Н.П. Шереметьева,55.7732899,37.6349032
Храм Симеона Столпника за Яузой,55.7473387,37.6497401
храм Казанской иконы Божьей Матери,55.6686755,37.6680976
Рижский вокзал,55.7920256,37.6325086
Павильон №75,55.8323878,37.637456
Большая каменная оранжерея,55.7382988,37.8098605
Второй Кавалерский Корпус,55.6168949,37.6826504
Церковь Иконы Божией Матери Казанская,55.6212967,37.8412242
None1670,55.7504053,37.8632133
Казармы служителей богадельни,55.7920169,37.7590859
Служебный (Западный) корпус,55.7914193,37.7589466
Семейный корпус_-_ Государев двор,55.7913562,37.7610961
Передние въездные ворота,55.7916791,37.7632418
None1676,55.6926881,37.8518307
Богадельня имени И. Н. Геера,55.7837824,37.6625038
Мечеть 'Хатам Аль-Анбия',55.66472,37.5279033
усадьба Воронцово,55.6670212,37.5313538
Храм Живоначальной Троицы в Воронцове,55.6678569,37.5404432
Мемориальная синагога,55.7301973,37.4963183
Храм Троицы Живоначальной в Серебряниках,55.7499788,37.6446996
Храм святителя Льва Великого,55.6410942,37.4999224
Бывший молельный дом усадьбы 'Ковчег',55.7591248,37.8628935
Палаты Сверчковых,55.759831,37.6405262
Собор Непорочного Зачатия Пресвятой Девы Марии,55.7672936,37.5717956
Никольский собор,55.6694203,37.7185766
Собор Иверской иконы Божией Матери,55.6690669,37.7200357
Храм Антония и Феодосия Печерских в Бибиреве,55.8957882,37.6240782
Церковь ЕХБ 'Голгофа',55.8989407,37.6025065
Церковь Благовещения Пресвятой Богородицы,55.6417688,37.336571
Храм Воскресения Словущего в Барашах,55.759889,37.6495364
Ансамбль 'Жилые дома на Октябрьском поле',55.7955901,37.486772
Часовня иконы Божией Матери «Утоли моя печали» в Северном Медведкове,55.8874053,37.6603893
Храм-часовня Иконы Божией Матери «Живоносный Источник»,55.8984681,37.6070699
Храм Сергия Радонежского,55.7179251,37.7773545
Усадьба Свиблово,55.8539367,37.6309725
Храм Живоначальной Троицы,55.781446,37.5773406
None1699,55.8769598,37.6556625
Храм Святителя Тихона и Святого Андрея Первозванного,55.6836288,37.7633502
Храм Рождества Христова,55.800902,37.7694212
Храм Всех Святых,55.7843242,37.667518
Ростокинский акведук,55.8302002,37.6569047
Храм Рождества Пресвятой Богородицы в Капотне,55.6392867,37.7916715
Московская христианская пресвитерианская церковь 'Единство',55.7161894,37.6746647
Церковь Святителя Николая в Хамовниках,55.7319647,37.591201
Жилые палаты Хамовного двора,55.7325281,37.5891281
Дом городских начальных училищ,55.735498,37.5798781
Исторический музей 'Наша эпоха',55.7327779,37.5807784
Храм св. Дмитрия Солунского,55.8190219,37.8598489
Дом-музей В.М. Васнецова,55.7768488,37.625977
Ракета «Восток»,55.8343094,37.6231424
Галерея 'Самолёт' (ЯК-42),55.8339435,37.6229507
Павильон №16_-_ 'Гидрометеорология',55.8306847,37.6226218
Павильон №25_-_ 'Нефтяная промышленность',55.8338804,37.6193797
Павильон №9_-_ «Юные техники»,55.8291398,37.6283825
Павильон б/н «Хлеб»,55.8272523,37.6279505
Павильон №17_-_ 'Лесная промышленность',55.8312807,37.6236423
Золотой колос,55.8384283,37.6163422
Московская хоральная синагога,55.7552178,37.6349706
Главный дом усадьбы Головиных,55.7605077,37.6406525
Особняк Иокиша,55.8409731,37.5170805
Белые палаты на улице Пречистенке,55.743904,37.5995444
Особняк А. И. Дерожинской,55.7382345,37.5912832
Храм преподобных Зосимы и Савватия,55.8184769,37.8138317
None1727,55.7577029,37.6436114
Палаты Шуйских,55.7544124,37.6428849
Государственный Биологический музей им. К.А. Тимирязева,55.7644691,37.5717249
Городская Усадьба П.И. Щукина,55.7645348,37.570606
Синагога при Московском еврейском общинном центре,55.7905204,37.6084125
Храм Сошествия Святого Духа на Апостолов,55.7914544,37.6181532
Храм-часовня Николая Чудотворца,55.8030901,37.7064346
Палаты Троекуровых,55.7585506,37.6154418
Церковь Тихвинской Божией Матери,55.7882851,37.5993304
Собор бывшего Скорбященского монастыря,55.7893439,37.5926267
Храм Всемилостивого Спаса,55.8368585,37.3864717
Дом общества 'Детский труд и отдых',55.7908639,37.598612
Храм Покрова Пресвятой Богородицы в Бутырской тюрьме,55.7845614,37.5936809
None1740,55.7826384,37.6079332
Храм Иконы Божьей Матери Отрада и Утешение,55.8807757,37.722101
Флигель городской усадьбы П. А. Алянчиковой,55.7691227,37.6100039
Особняк А. К. Ферстер — Михельсона,55.7588121,37.5900278
Особняк С.П. Рябушинского,55.7581411,37.5961482
Храм Вознесения Господня за Серпуховскими воротами,55.7263069,37.6233272
Музей В.И. Даля,55.7616991,37.5801254
Храм Великомученика Георгия Победоносца,55.7658795,37.5760382
Особняк Горбуновых,55.7664953,37.5768188
Террариум,55.7617993,37.583717
Городская усадьба Долгоруких,55.7580628,37.5872607
Собор Боголюбской иконы Божией матери,55.7674422,37.6147696
Усадьба Е. А. Волконской_-_ Н. И. Прокофьева,55.75504,37.6657834
Храм Святителя Николая Мирликийского,55.7586574,37.5660409
Усадьба Хованского,55.7490857,37.5905315
Церковь преподобного Симеона Столпника,55.7533495,37.5968559
Дом Шереметьевых,55.7564201,37.5885863
Музей А.М. Горького,55.7558051,37.5887412
Часовня Явления образа Николая Чудотворца,55.6218282,37.8405185
Церковь-часовня Страстей Господних,55.6225297,37.8380657
Церковь Пимена Угрешского,55.622094,37.836791
Собор Преображения Господня,55.6215006,37.8396007
Собор Николая Чудотворца,55.6218017,37.8396877
Колокольня,55.6223086,37.8402859
Часовня Иконы Божией Матери Взыскание Погибших,55.6236312,37.8387703
Особняк Маргариты Морозовой,55.7433467,37.5844934
Музей-мастерская А.С. Голубкиной,55.7416229,37.5857936
Храм Святой Животворящей Троицы,55.6150527,37.476008
None1771,55.7716759,37.6321481
Храм Троицы Живоначальной в Листах,55.7716954,37.6316712
Бывшая контора «Новосухаревского рынка»,55.7719036,37.6275162
Усадьба Апраксиных-Бутурлиных,55.7508287,37.604496
Церковь Зачатия Анны,55.7394516,37.6006214
Церковь Сошествия Святого Духа,55.739582,37.5989978
Церковь Преображения Господня,55.5836934,37.734836
Храм Всех Святых во Всехсвятском,55.8039504,37.5137244
Жилой дом с лавками Д.Н.Щербакова-Смирновых,55.774436,37.6835435
Дом Н.С. Брашнина,55.7372354,37.6275941
Храм Архангела Михаила в Тропарево,55.6558385,37.4789785
Церковь ссв. Косьмы и Домиана,55.8802567,37.4552622
Храм Успения Пресвятой Богородицы,55.7127783,37.4736421
Храм Святителя Николая,55.719324,37.8569495
Святителя Тихона,55.7190861,37.8572517
Музей современного искусства «Гараж»,55.727525,37.6010228
Особняк И.Л. Динга,55.7899878,37.6611263
Клуб фабрики 'Свобода',55.800606,37.5811655
Дом-музей И. В. Курчатова,55.7985307,37.476342
Слоновник,55.7649223,37.5759632
Дом птиц,55.7643806,37.5741848
Часовня Иконы Божией Матери Державная,55.914444,37.6874948
Храм Святителя Спиридона Тримифунтского,55.6888361,37.6953092
Церковь Троицы Живоначальной в Троице-Лыкове,55.7887563,37.4065664
Музей хоккея,55.7030684,37.6465879
Церковь-часовня Иконы Божией Матери Феодоровская,55.9024945,37.3929405
Церковь Святителя Николая Чудотворца На Берсеневке В Верхних Садовниках,55.7439203,37.6107997
Выставка гигантских насекомых,55.7621869,37.5814249
Успенский храм-колокольня,55.7390854,37.7016226
Старообрядческий собор Рождества Христова,55.7389259,37.7023782
Покровский кафедральный собор Старообрядческой церкви,55.7397134,37.7024475
Храм Василия Исповедника,55.7453461,37.6831128
Храм святых мучеников Флора и Лавра на Зацепе,55.7284846,37.6382329
Церковь Казанской иконы Божией Матери,55.7661783,37.6242826
Собор Рождества Пресвятой Богородицы,55.7397697,37.6003658
Павильон №31_-_ 'Геология',55.8351438,37.6195295
Павильон №30_-_ 'Микробиологическая промышленность',55.8348893,37.61854
Павильон №36_-_ 'Переработка продукции сельского хозяйства',55.8397311,37.6157092
Павильон №28_-_ 'Пчеловодство',55.8365969,37.6165955
Павильон №27_-_ 'Физкультура и спорт',55.8346,37.6128259
Павильон №33_-_ бывш. 'Автоэкспорт',55.8352547,37.6223485
Павильон № 50 'Молочная промышленность',55.8376985,37.6190834
Павильон № 47 'Свиноводство',55.8369938,37.624442
Павильон №37_-_ 'Птицеводство',55.8400274,37.6192374
Храм святителя Николая в Новой Слободе,55.7756643,37.6029214
None1821,55.8352107,37.6162204
Софии Премудрости Божией,55.7608479,37.6254413
Церковь Иконы Божией Матери Владимирская,55.9099892,37.7742297
Собор Рождества Христова,55.9167512,37.7479166
Господский дом,55.9085517,37.5855208
Храм Воздвижения Креста Господня в Алтуфьево,55.9080987,37.5861293
Собор Богоявления,55.7557461,37.6228124
Особняк Зинаиды Морозовой,55.7611679,37.5906399
Особняк А.Ф. Беляева,55.7600208,37.5935518
Церковь Евгения Херсонского под колокольней,55.7658137,37.6237144
Церковь Иоанна Златоуста,55.7153872,37.6021406
Храм Сретения Владимирской иконы Божией Матери,55.76579,37.6298977
Доходный дом Солодовникова,55.7899719,37.6331626
Дом-музей П.Д.Корина,55.7289555,37.5669589
Музей истории медицины,55.7318595,37.5696009
Синагога на Большой Бронной,55.760021,37.5980194
Англиканская церковь Cв. Андрея,55.7581309,37.605509
Богоявленский кафедральный собор в Елохове,55.7723714,37.6742537
Церковь Рождества Богоматери,55.7528857,37.6401242
Церковь вмч. Елисаветы,55.7545234,37.6405687
Часовня св. Иоанна Предтечи,55.7548142,37.640138
Церковь Илии Пророка Обыденного,55.7422076,37.6035262
Храм преподобного Иова Почаевского,55.7430186,37.6226083
Храм иконы Божией Матери 'Троeручица',55.6059512,37.7211411
None1848,55.7762007,37.456725
Троицы в Никитниках,55.7539352,37.6313722
Церковь Рождества Иоанна Предтечи у Варварских ворот,55.7532107,37.6320795
Палаты тверского подворья,55.762758,37.6246974
храм Илии Пророка в Черкизове,55.8002935,37.7341582
Церковь Космы и Дамиана на Маросейке,55.7578109,37.638463
None1854,55.756272,37.6292684
Историко-мемориальный музей 'Пресня',55.7594159,37.5706919
Особняк купца В.Д. Носова,55.7851987,37.703406
Особняк Шехтеля,55.765928,37.5918386
Особняк Ф.О. Шехтеля,55.7661941,37.5956326
Храм Успения Пресвятой Богородицы в Путинках,55.7690316,37.6072297
Церковь Александра Невского,55.6546104,37.4344237
Церковь преподобного Сергия Радонежского,55.7669691,37.615797
Собор Святителя Петра_-_ митрополита Московского,55.7672336,37.6152552
Храм Преподобного Сергия Радонежского в Крапивниках,55.7669234,37.6174467
None1864,55.7674254,37.6257265
Церковь Николая Чудотворца в Дербеневе,55.7685662,37.6377156
Дворец Юсуповых,55.7664803,37.6501129
Храм Вознесения Господня,55.6671648,37.6707525
Храм Иерусалимской иконы Божией Матери,55.7335943,37.6773041
Церковь Софии и Татьяны,55.7649619,37.5852685
None1870,55.7564973,37.6421811
Храм святителя Мартина исповедника_-_ Папы Римского,55.7435047,37.6596996
Храм Сорока Севастийских Мучеников,55.7318427,37.6585691
Храм Николая Чудотворца в Толмачах,55.7408626,37.6200381
Храм Покрова Пресвятой Богородицы Марфо-Мариинской обители милосердия,55.7377299,37.6229423
Дом Доктора Эберлина,55.7408008,37.6260939
Домовый храм Иверской иконы Божией Матери на Полянке,55.7385065,37.6171467
None1877,55.7391999,37.6187455
Малый храм-часовня праведного Иоанна Русского,55.7347114,37.4063116
Музей каллиграфии,55.8003213,37.6758058
Храм Петра и Павла,55.7697528,37.6570316
Часовня 300-летия дома Романовых,55.7322167,37.6563299
Колокольня с храмом преподобного Сергия Радонежского,55.732135,37.6574548
Российский музей леса,55.7328879,37.6335245
Палаты в Овчинниках,55.7444869,37.6308545
Покрова Пресвятой Богородицы старообрядческий храм,55.7735782,37.6859906
храм Спаса Преображения,55.8319014,37.402048
Городская усадьба П. П. Игнатьевой – Н. А. Белкина,55.7260361,37.6216748
None1891,55.8412164,37.525706
None1892,55.8410912,37.5256331
Дом начальника участка тяги,55.8407967,37.5250822
None1894,55.8412622,37.5269249
Мемориальный музей космонавтики,55.8232293,37.6402856
Храм Серафима Саровского,55.8832211,37.6667363
Храм Преподобного Сергия Радонежского,55.8868549,37.5982958
Храмовый комплекс во имя Собора Московских Святыx,55.8868232,37.598827
Сергиевская церковь,55.6512043,37.3912624
Храм Троицы Живоначальной на Воробьёвых горах,55.7105654,37.5402768
Церковь Иоанна Предтечи,55.6073779,37.3547139
Церковь Тихона_-_ патриарха Всероссийского,55.6069298,37.3546388
None1906,55.6425704,37.7485092
Храм Живоначальной Троицы при детской больнице святого Владимира,55.7874681,37.6956217
Детский парк аттракционнов 'Кроха',55.7747098,37.7501109
Церковь Антония и Феодосия Печерских в Бибиреве,55.8957942,37.6245334
св. Георгия Победоносца,55.7324109,37.5121479
None1911,55.7912198,37.4549141
Домовая церковь Спаса Всемилостивого,55.7348105,37.8082701
Итальянский домик,55.7352585,37.8114025
Американская оранжерея,55.7377997,37.8113513
Колокольня церкови Спаса Всемилостивого,55.7349566,37.8084361
Вольер для птиц,55.7365266,37.8104232
Павильон 'Эрмитаж',55.7374344,37.8078046
Кухонный флигель,55.7349642,37.808669
Дирекция (Швейцарский домик),55.7359176,37.8065555
Погодинская изба,55.7323726,37.5673907
церковь Георгия Победоносца,55.6670592,37.6698831
Водовзводная башня,55.6669312,37.670005
Церковь Николая Чудотворца,55.8216746,37.3780739
Золотой пруд,55.5731444,37.3490663
Тёмный пруд,55.5725537,37.3479932
Красный пруд,55.5736609,37.3508016
Троицкий собор,55.7108954,37.6299492
Колокольня с храмом прп. Симеона Столпника,55.7111374,37.6307915
Собор Святых Отцов Семи Вселенских соборов,55.7107407,37.630997
Поминальная часовня,55.7112556,37.6288179
храм Воскресения Словущего,55.7095336,37.6295938
Храм Тихвинской иконы Божией Матери,55.8182846,37.643934
Церковь св. Митрофана Воронежского,55.8034688,37.5630706
Музей И.С. Тургенева,55.738841,37.5960284
старообрядческий храм Покрова Пресвятой Богородицы,55.7368827,37.5977729
Особняк Абрикосовых,55.7374414,37.595489
Православная часовня св. великомученика и целителя Пантелеймона в Отрадном,55.8566981,37.590693
Церковь Иосифа Волоцкого,55.5905122,37.7619343
Всех скорбящих Радость,55.7850056,37.6288854
Филиал Государственного музея Л.Н. Толстого,55.7433205,37.6276866
Усадьба Алтуфьево,55.9083703,37.5870572
Храм Воскресения Христова в Кадашах,55.7433125,37.6227478
Храм святых мучеников Адриана и Наталии,55.8652624,37.6993243
None1947,55.6942388,37.538816
Зелёный театр,55.8316744,37.6171566
Часовня Серафима Саровского в Филях,55.7635636,37.4779535
Храм Троицы Живоначальной на Пятницком кладбище,55.7998353,37.6395209
Церковь Ильи Пророка на Новгородском подворье,55.7547278,37.6238511
Дом бояр Романовых,55.7527252,37.6289329
Церковь Георгия Победоносца на Псковской горке,55.7525457,37.630853
Храм Апостола Иоанна Богослова под Вязом,55.7574713,37.6276786
Собор Спаса Нерукотворного Образа в Заиконоспасском монастыре,55.7564023,37.6208291
None1956,55.7208451,37.4221201
Церковь Николая Чудотворца в Троекурове,55.7030195,37.4111245
Жилой дом Абрикосовых,55.7865204,37.6587222
None1959,55.6892543,37.7881709
Дворец Алексея Михайловича,55.656209,37.6560383
Джунгли,55.7942204,37.671768
Крестильный храм во имя святых мучениц Веры_-_ Надежды_-_ Любови и матери их Софии,55.9082773,37.5860766
Часовня мученика Уара,55.907742,37.5855093
Жилой дом 1880 г.,55.7787056,37.6469773
Церковь-часовня Ксении Петербургской,55.9117183,37.5618571
None1967,55.6910999,37.5934827
Храм Святых Мучениц Веры_-_ Надежды_-_ Любови и матери их Софии на Миусском кладбище,55.7943679,37.5975276
храм Воскресения Христова,55.7911842,37.6767632
Храм-часовня Покрова Пресвятой Богородицы,55.6946052,37.4952684
Павильон №510_-_ 'Главконсерв',55.8357213,37.6248796
Храм Софии Премудрости Божией в Средних Садовниках,55.7475575,37.6216545
None1973,55.808031,37.654612
Храм всех святых в земле Российской просиявших в Новокосино,55.7351826,37.8473767
None1975,55.5931593,37.6761867
Третий Кавалерский корпус,55.6172914,37.6798372
Первый Кавалерский корпус,55.6165519,37.6839295
церковь Божией Матери Живоносный Источник,55.6170362,37.6813006
None1979,55.887986,37.6746428
Лес чудес,55.7864746,37.750889
Четыре времени года,55.754294,37.6136493
Пост ЭЦ станции Лефортово,55.762943,37.745844
Церковь Захарии и Елизаветы,55.7141392,37.5998532
Архимандритские покои,55.7150593,37.6020409
Служебный флигель усадьбы Знаменское-Губайлово,55.8212111,37.3222089
Центральный дом усадьбы Знаменское-Губайлово,55.8220158,37.3223333
Церковь Иконы Божией Матери Знамение,55.8205963,37.3222021
Корпус 3,55.5732384,37.3550145
Господский дом усадьбы 'Валуево' (корпус 6),55.5735781,37.354148
Корпус 1 (дом управляющего),55.5743496,37.3550074
Корпус 2 (контора),55.5738311,37.3555197
Церковь св. Пантелеимона при Центральном военном клиническом госпитале ФСБ РФ,55.8048822,37.4823058
Планета Сокольники,55.7943757,37.6728766
Храм во имя иконы Божией Матери «Скоропослушница»,55.7979634,37.4916005
Храм-часовня Сергия Радонежского,55.880732,37.6963865
Загородная усадьба графа Орлова,55.7094903,37.6051597
Приход Св. Ольги,55.670862,37.7431796
None1999,55.8470331,37.5911866
Храм преподобной Евфросинии Московской,55.6650715,37.6034386
Храм Благовещения Пресвятой Богородицы в Раеве,55.863388,37.6618943
Церковь Рождества Христова,55.7165673,37.3737214
None2003,55.768484,37.5537766
Первый общественный туалет Москвы,55.7355492,37.5784514
Корпус 9 (прачечная_-_ столярная_-_ гараж),55.5744871,37.3538413
Церковь Иконы Божией Матери Донская,55.8962115,37.7324292
Южная башня,55.5734925,37.3559913
Церковь Покрова Пресвятой Богородицы,55.8926751,37.3502413
Храм Успения Пресвятой Богородицы на Могильцах,55.7437221,37.5903193
Усадьба Самсонова,55.7394349,37.5884817
Главный дом,55.8151917,37.4715276
Больничные палаты,55.7255705,37.5571777
Церковь на Бутаковском заливе,55.880757,37.4332897
Фигурные ворота,55.6143073,37.6808324
Храм святителя Николая в Сабурове,55.6396619,37.7000113
Храм Рождества Пресвятой Богородицы,55.7110521,37.6537202
храм во имя ПреподобногоСерафима Саровского,55.7492356,37.5457464
Надвратный храм Спаса Нерукотворного Образа,55.7403278,37.5994145
Исторический объект инфраструктуры МОЖД,55.7663822,37.7456206
Церковь Трифона в Напрудном,55.7883081,37.6266103
Главный дом усадьбы 'Белая Дача',55.6605032,37.850459
None2025,55.8895433,37.7336028
Часовня Спаса Преображения,55.7981642,37.5111346
Храм святого великомученика и целителя Пантелеймона (ЦКБ МПС РФ),55.8192905,37.456169
Храм святителя Николая в Кузнецкой Слободе,55.736638,37.6322485
Саентологическая церковь Москвы,55.7408743,37.6595176
Церковь-часовня Иконы Божией Матери Умягчение Злых Сердец,55.5721626,37.5079618
Усадьба Студенец,55.7532456,37.5531748
Храм Благовещения Пресвятой Богородицы в Сокольниках,55.7853441,37.688572
None2033,55.8898644,37.7287209
Храм святой великомученицы Анастасии Узорешительницы в Тёплом Стане,55.6254235,37.4904464
Церковь иконы Божией Матери 'Знамение' в Ховрине,55.8647368,37.5094255
Церковь Святителя Николая,55.818446,37.568037
Ванный домик,55.7181914,37.5883329
Храм Сретения Господня,55.8101409,37.774473
Музейно-мемориальный комплекс истории Военно-морского флота России,55.8514928,37.4538857
Ротонда-беседка,55.7162305,37.5859775
Аллегория бога реки Скамандр,55.7365239,37.8087459
Музей истории МСХА им. К.А. Тимирязева,55.8312411,37.5510337
Дом Толстого,55.7471707,37.5890862
Церковь Сергия Радонежского,55.919693,37.5214998
None2047,55.7367551,37.5380747
Бывший железнодорожный вокзал Потылиха МОЖД,55.7312107,37.5454152
храм Святителя Тихона Задонского,55.8018662,37.6830983
Подводная лодка Новосибирский комсомолец,55.8528338,37.4563427
Судно на воздушной подушке,55.8514653,37.4547572
Экраноплан Орлёнок,55.8516142,37.4558029
Церковь Преподобного Сергия Радонежского в Бусинове,55.883221,37.4989592
Вокзал станции Канатчиково МОЖД,55.7019047,37.5916662
Дом-музей Щепкина,55.781792,37.6288665
Вольер с хищными птицами,55.7765651,37.4297333
Серые журавли,55.7774926,37.4311982
Серая цапля,55.7775661,37.431388
Корпус 4 (конный двор),55.5731768,37.3550721
Корпус 8 (скотный двор),55.5744171,37.3539032
None2062,55.5979375,37.5286032
Бывшая водонапорная башня,55.574398,37.3522704
Корпус 5_-_ администрация (флигель),55.5733563,37.354645
Корпус 7 (флигель),55.5741145,37.3536577
Часовня Святого Великомученика Георгия Победоносца,55.8209853,37.7186149
Северная башня,55.5747387,37.3548187
Парковый павильон 'Дом охотника',55.5725612,37.3495406
Большой собор Донской иконы Божией Матери,55.7144792,37.6015839
Малый собор Донской иконы Божией Матери,55.7138613,37.6023287
Церковь Дмитрия Донского,55.6599495,37.6491617
Елизаветинский дворец,55.782437,37.695008
Храм свт. Николая Мирликийского,55.7944106,37.7508634
Церковь Собора Дивеевских святых (подворье Серафимо-Дивеевского монастыря),55.7764739,37.6326334
Кремль в Измайлово,55.7939827,37.7503847
Санаторий Главмосстроя 'Валуево',55.5718417,37.3577877
Парадные ворота усадьбы 'Валуево',55.574155,37.3554085
Часовня св. равноап. кн. Владимира,55.7181153,37.5434948
Московская Соборная мечеть,55.7792322,37.627334
Церковь Григория Неокесарийского в Дербицах,55.7376417,37.6190019
Певческие палаты,55.7269334,37.5555756
Казначейские палаты,55.7265319,37.5575566
Трапезная,55.7264068,37.555619
Филатьевское училище,55.7258834,37.5575634
Белокаменные палаты XVII века,55.7441388,37.5981063
Усадьба П.В. Цигеля в Сокольниках,55.8139801,37.6745926
Храм Ирины (Троицы Живоначальной),55.7750559,37.6877031
Храм Святой Троицы в Кожевниках,55.7271069,37.6479906
Библейская миссия,55.891455,37.7319945
None2095,55.8820899,37.7002522
Храм Воскресения Христова и Покрова Божией Матери,55.7667855,37.6709204
Храм Троицы Живоначальной у Салтыкова моста,55.7575454,37.6793179
Храм Введения во храм Пресвятой Богородицы у Салтыкова моста,55.7576134,37.680226
Городская усадьба Черкасской — Баскакова,55.7576462,37.5930634
Усадьба Васильчиковых,55.7580858,37.5909684
Проща,55.7469396,37.6786113
Храм Святого Благоверного князя Игоря Черниговского,55.6565249,37.347619
Храм Преображения Господня в Переделкине (селе Лукине),55.6574294,37.3469908
Музей Московской железной дороги,55.7280559,37.6420107
Храм Михаила Архангела при клиниках на Девичьем поле,55.7351019,37.5736412
None2106,55.7959317,37.5518302
Храм святых апостолов Петра и Павла,55.7652115,37.7003287
Церковь Иоанна Предтечи на Хованском кладбище,55.6069647,37.4479413
Церковь Богоявления Господня,55.8911538,37.4159276
None2110,55.8226372,37.5665305
Кутузовская изба,55.7396482,37.5231403
Музей скульптуры «Галерея 3D»,55.889855,37.4479371
Покрова Пресвятой Богородицы,55.7484586,37.6542994
Музей и общественный центр им. Андрея Сахарова,55.7512804,37.6590707
Алые паруса,55.851612,37.4680829
Церковь Иоанна Рыльского,55.7000455,37.6079034
Ризположенская церковь,55.7199233,37.6040067
Особняк М. Ф. Якунчиковой,55.7439396,37.5933388
Церковь Иоанна Кронштадтского,55.667159,37.5617846
None2120,55.7158807,37.5854328
Субурган и Пагода рая с молитвенным барабаном,55.8549262,37.5911391
Храм Троицы Живоначальной на Шаболовке,55.7231809,37.6109438
Лихоборская плетёная арка,55.8506637,37.5859149
None2124,55.6163823,37.6710152
Музей русской иконы,55.7463543,37.6456432
Храм Никиты Мученика (Афонское подворье),55.7456409,37.6446647
Храм Воскресения Словущего,55.7380465,37.6698762
Храм Положения Ризы Божией Матери во Влахерне в Леоново,55.8415641,37.6443562
Аллея городов-героев и городов воинской славы,55.7547528,37.6158735
Белка обыкновенная,55.7303904,37.5772915
Церковь Бориса и Глеба,55.6586707,37.5803907
храм Преображения Господня,55.8146838,37.6963066
Большой Московский Государственный цирк,55.6943907,37.5409327
Музей славянской культуры им. Константина Васильева,55.8993028,37.5658868
Церковь воздвижения креста,55.7387657,37.5742278
None2139,55.5723307,37.6327361
Храм-часовня во имя Преподобного Серафима Саровского,55.5969555,37.6341166
Храм-часовня пророка Божия Илии,55.8627632,37.6050228
Галерея 'На Каширке',55.6616417,37.6473248
Ломаковский АвтоМотоМузей,55.6748355,37.771558
Музей русского импрессионизма,55.7804975,37.5701093
Хрустальная часовня,55.7470694,37.6007644
Церковь Иконы Божией Матери 'Знамение',55.6791738,37.5878495
Часовня святого благоверного князя Димитрия Донского,55.7487941,37.6723293
Киноконцерн «Мосфильм»,55.7167603,37.5263283
Влахернской иконы Божьей Матери,55.6905997,37.7902117
Музей русской усадебной культуры,55.6901253,37.7919632
None2153,55.6948995,37.7698698
Особняк Новиковых,55.7333002,37.6202817
Музей В.А. Тропинина и московских художников его времени,55.7338688,37.622909
Летние аттракционы,55.9174782,37.8235246
Церковь Иоанна Воина,55.7327408,37.6107925
Храм Святителя Николая в Старом Ваганькове,55.7501355,37.6073192
храм святителя Димитрия Ростовского в Очакове,55.68979,37.4427092
Церковь Воскресения Словущего (апостола Филиппа),55.7503022,37.5987796
Собор Иконы Божией Матери «Знамение»,55.752339,37.628458
Старый Английский Двор,55.7522501,37.6266646
Храм Варвары Великомученицы на Варварке,55.7523164,37.6257615
Храм Максима Блаженного на Варварке,55.7524115,37.627124
Гараж Госплана,55.7399544,37.7224938
Богородице-Рождественский монастырь,55.7663895,37.6238727
Часовня Богоявления Господня в Звонарях,55.7641263,37.6226574
Церковь Воздвижения Креста Господня на Преображенском кладбище,55.7933813,37.7170957
старое здание вокзала,55.868532,37.5132466
Музей истории коньяка,55.8680512,37.458402
Городская усадьба_-_ дом Стахеева,55.7689303,37.6587614
Знаменский храм на Рижской,55.7918006,37.6398507
Дом Бурганова,55.7465148,37.5971759
Храм-часовня Святых равноапостольных Константина и Елены,55.8393064,37.3721891
None2175,55.6756526,37.7663343
Церковь св. мчч. Веры_-_ Надежды_-_ Любви и матери их Софии,55.6548497,37.4957979
Храм священномученика Власия в Старой Конюшенной слободе,55.7453428,37.5914993
Собор Спаса Нерукотворного,55.7493442,37.6707703
Центральный музей древнерусской культуры и искусства им. Андрея Рублева,55.749686,37.670542
Церковь Архангела Михаила,55.7135076,37.6015671
Духовская церковь,55.7037352,37.608685
Никольская церковь,55.7913122,37.7171042
Церковь Покрова в Филях,55.7505309,37.5104822
Московский музей анимации,55.8330018,37.634715
самолёт МиГ-23М,55.8843854,37.4190538
Водокачка,55.7904808,37.7644919
Мостовая башня,55.790694,37.7656021
Церковь Михаила Архангела,55.8586527,37.3882851
Нулевой причал,55.8538858,37.4649858
Старое здание железнодорожного вокзала Белокаменная,55.8293489,37.7011682
Мультимедиа Арт Музей,55.7419289,37.598234
Храм Благовещения Пресвятой Богородицы в Раево,55.8568564,37.6577319
часовня-усыпальница Поляковых,55.8206143,37.3223408
Музей Орловского рысака и Русской Тройки,55.8083077,37.6768977
Старообрядческая Успенская молельная,55.7911631,37.7176082
Преображенская свеча,55.7911913,37.7167499
None2202,55.7633493,37.61694
Огни Москвы,55.7607917,37.6357294
Дом-музей К.С. Станиславского,55.7588657,37.6024696
колокольня Боголюбской церкви,55.8105094,37.3556969
Церковь Иконы Божией Матери Боголюбская,55.8104972,37.3560581
Храм Иконы Божией Матери Нечаянная Радость в Марьиной Роще,55.8056914,37.6148132
Сушило,55.7136947,37.6553504
Старая трапезная,55.7135434,37.6566279
None2211,55.711759,37.5739308
Поминальный дом,55.7666982,37.5549977
Церковь Святого Воскресения,55.7660158,37.5546963
None2214,55.8257266,37.3286713
детские аттракционы,55.8288502,37.3217971
Государственный центр современного искусства,55.7643531,37.5815881
Планетарий,55.7812797,37.6216747
Дом архитектора Мельникова,55.7480133,37.5895767
Павильон 'Шестигранник',55.728832,37.6035759
None2221,55.826334,37.3214201
Усадьба Ясенево,55.5985375,37.548122
Храм во имя святых страстотерпцев Бориса и Глеба в Дегунине,55.8667054,37.5345152
Колокольня церкви Усекновения Главы Иоанна Предтечи,55.763668,37.6555354
Церковь Галины Коринфской близ 119-й клинической больницы,55.9056455,37.3328924
Часовня Прохоровых,55.7262571,37.5569959
Цветочные часы,55.734843,37.5170983
Тихвинская церковь,55.7155678,37.601511
None2230,55.7315758,37.5134027
Храм Иверской иконы Божьей Матери,55.6860017,37.475036
Вернисаж,55.7339596,37.6015551
Храм Апостола Иоанна Богослова,55.7118873,37.5751408
Храм Покрова Пресвятой Богородицы на Городне,55.6033253,37.6278194
Бывший железнодорожный вокзал Ростокино МОЖД,55.8425287,37.6563509
Музей путешествий и паломничества по святым местам,55.7284673,37.6588494
Часовня Игоря Черниговского,55.8956374,37.4199717
Старый пассажирский вокзал станции Лефортово,55.7621472,37.7456726
None2239,55.7616297,37.7457706
None2240,55.7617075,37.7457163
Жилой дом III-го типа при станции Андроновка МОЖД,55.7415798,37.7324493
Сторожевой дом Московской окружной железной дороги,55.79628,37.5021355
Храм во имя иконы Божией Матери «Знамение» в Аксиньине,55.8578239,37.4862697
Храм Успения Пресвятой Богородицы в Крутицах,55.7279813,37.6588823
Метровагон Д,55.8468268,37.5994865
Метровагон Е,55.8468182,37.5995402
Храм Живоначальной Троицы в Борисове,55.6297258,37.7287295
Здание вокзала бывшей станции Братцево МКЖД,55.8283489,37.5029633
Спасо-хаус,55.7511106,37.5883321
Временный храм Благоверного Князя Александра Невского,55.6793318,37.4808186
Храм Покрова Пресвятой Богородицы в Ясеневе,55.6153425,37.5399146
Ковылинская часовня,55.7920406,37.721613
часовня Николы Чудотворца,55.7921159,37.7214101
Храм свт.Алексия Митрополита Московского,55.7464821,37.6658874
Храм мученицы Татианы при МГУ,55.7546013,37.6118199
Палаты Арасланова,55.7571751,37.6047364
Часовня Иверской иконы Божией Матери,55.7556885,37.6179073
Часовня Филарета_-_ митрополита Московского,55.7192082,37.8567791
Казанская церковь,55.6478156,37.4841905
Храм Святых Царственных Страстотерпцев,55.8238594,37.5117408
Западные ворота,55.6255208,37.5134635
None2267,55.661467,37.447138
Павильон б/н 'Шелководство',55.8312709,37.6187863
Год семьи,55.6813139,37.5035398
Бывший павильон 'Колхозные ясли',55.8363054,37.6278071
Бывший павильон колхозного детского сада,55.8364107,37.6291671
Храм во имя иконы Божией Матери «Знамение» за Петровскими воротами,55.7693853,37.6140656
Собор Усекновения Главы св. Иоанна Предтечи,55.7544358,37.6402551
Храм Успения Пресвятой Богородицы на Чижевском подворье,55.7571779,37.6236126
Дом Пороховщикова,55.7498804,37.5945471
Храм иконы Божией Матери «Всех скорбящих Радость»,55.7329369,37.6886515
Храм преподобного Иосифа Волоцкого,55.6585027,37.5248981
Открытый фрагмент стены Белого города,55.7584957,37.6461669
Альтернативные источники энергии,55.9104406,37.3850521
Купол,55.7516259,37.6256836
Храм-часовня в честь святого благоверного князя Дмитрия Донского,55.8846061,37.6429391
Храм иконы Божией Матери 'Живоносный Источник',55.7148581,37.8727948
Могила Неизвестного Солдата,55.754873,37.6160401
Храм Первоверховных Апостолов Петра и Павла,55.6000276,37.5489055
Частная школа «Академическая гимназия»,55.8123109,37.682996
Церковь Владимира равноапостольного,55.7720084,37.6131295
None2289,55.7450594,37.5866138
Японский сад камней,55.7850784,37.8722184
Временный храм - часовня Патриаршего подворья в честь святой равноапостальной великой княгини Ольги,55.8143871,37.6188706
Московский музей современного исскуства,55.6900394,37.5525295
Дом-музей М. Ю. Лермонтова,55.7536238,37.5941413
Дом-музей Марины Цветаевой,55.7543312,37.590046
Церковь Косьмы и Димиана Ассийских,55.7786632,37.551496
Храм-часовня Архангела Гавриила на Ходынском поле,55.7873531,37.5376222
Храм Державной иконы Божией Матери в Чертанове,55.6349399,37.6030215
Старинная водокачка станции Лихоборы МОЖД,55.8443162,37.5287328
АВ-Парк,55.9097565,37.7414112
Башня “Дуло”,55.7135324,37.6549057
Казначейские кельи,55.7139552,37.6548938
Монастырская постройка,55.7136359,37.6561497
Солевая башня,55.7135464,37.6583982
ЦерковьТихвинской иконы Божией Матери,55.7140587,37.6574032
Часовня Николая Чудотворца,55.6233899,37.8407526
Церковь Иконы Божией Матери Всех Скорбящих Радость,55.6223777,37.8413175
Детский досуговый центр «Светлячок»,55.7855744,37.751865
Водосвятная часовня,55.7384551,37.6703971
Служебный (Южный) корпус,55.7914059,37.759128
Северный дом чиновников богадельни,55.7923346,37.7634984
Конюшня и сарай для экипажей,55.791075,37.763012
Задние въездные ворота,55.7924811,37.7593686
Южный ледник,55.7912403,37.7625398
Служебный (Северный) корпус,55.7928878,37.7607806
Баня_-_ прачечная,55.7927284,37.7628872
Храм в честь святого праведного Симеона Верхотурского,55.6466818,37.7140954
Собор Покрова Пресвятой Богородицы,55.791385,37.7652988
Дом-музей М.Н. Ермоловой,55.759975,37.599746
None2323,55.7415217,37.7753548
None2326,55.7206718,37.46827
Храм Святителя Киприана митрополита Московского,55.6052792,37.5786508
Часовня апостола Андрея Первозванного,55.8287683,37.7664136
Церковь прп. Серафима Саровского и Анны Кашинской,55.7122992,37.6031653
Храм входа Господня в Иерусалим,55.5784836,37.6674114
Церковь Власия и Харлампия,55.6345363,37.7331946
Храм Всех преподобных отцев Киево-Печерских в Старых Черемушках,55.6778427,37.5754995
Церковь Андрея Рублёва,55.6939709,37.4947951
храм Ермогена_-_ Патриарха Московского и всея Руси в Зюзино.,55.6426513,37.6047004
Храм Мефодия и Кирилла на Дубровке,55.7254126,37.6719505
Церковь Василия Московского,55.6331895,37.5388317
Храм великомученицы Анастасии Узорешительницы,55.6260979,37.4893375
Храм Святого праведного Алексия Московского,55.7319139,37.8289252
Розовая башня Сумского острога,55.6736282,37.6779983
Церковь Святого великомученика Георгия Победоносца,55.6728513,37.6751467
Башня Братского острога,55.6730337,37.6785867
None2343,55.8613437,37.4518992
None2344,55.8608957,37.4522315
Храм Благоверного Князя Александра Невского при МГИМО,55.6788749,37.4812546
Часовня на месте погребения инокини Досифеи (княжны Таракановой),55.7322128,37.6575312
Мемориальный музей А.Н. Скрябина,55.7508105,37.5899106
Часовня Успения Пресвятой Богородицы,55.8172728,37.6133363
Храм блаженной Матроны Московской,55.6326622,37.50743
Данилов монастырь,55.7105498,37.6315741
None2353,55.8994951,37.5707335
Кафедральный собор Преображения Господня,55.7881082,37.6216372
Церковь Алексия Человека Божия,55.7561362,37.4015156
Храм Преображения Господня в Преображенском,55.7956365,37.7107412
Вольер с птицами,55.7293812,37.5758297
Храм иконы Божией Матери 'Неувядаемый Цвет',55.7910168,37.3541414
Церковь Матроны Московской в Дмитровском,55.8857365,37.5315814
Обсерватория и планетарий 'Урания',55.7927579,37.6762269
Fun-град,55.7954472,37.6651505
Храм Покрова Пресвятой Богородицы в Орехове-Борисове,55.6065257,37.7443734
Часовня при Храме Покрова Пресвятой Богородицы,55.60669,37.7442391
Москвариум,55.8334208,37.6177628
None2365,55.7941338,37.6726836
None2366,55.7938123,37.6726002
None2367,55.7943114,37.6723562
Айсберг,55.7943134,37.671782
Башня пирата,55.7943151,37.6726451
Воздушный рейс,55.7940192,37.6731398
Волшебный байк,55.7942675,37.6731681
Диско,55.7940997,37.6739558
Калипсо,55.794226,37.6739974
Колобок,55.7942023,37.6736956
Мини-Гималайя,55.7938006,37.6736929
Мини-ботик,55.7942509,37.6733286
Паровозик,55.7943114,37.6723562
Самолетики,55.7936717,37.6716577
Сафари тир,55.7935597,37.6741534
Слоны,55.7939893,37.6728199
Тир 'Базука',55.7939829,37.6725118
Экстрим батут,55.7942342,37.6734878
Детские аттракционы,55.7292509,37.604717
Церковь Иннокентия_-_ митрополита Московского,55.6891339,37.873871
Альпийская горка,55.8315396,37.5494047
None2392,55.8488176,37.361267
Введенский храм,55.8829841,37.6673636
Пассажирское здание станции Кожухово,55.7002441,37.6510576
Храм преп. Сергия Радонежкого,55.8237417,37.8331744
None2396,55.6104985,37.4882968
None2397,55.8503669,37.3562871
Дача Лямина,55.8128941,37.6811825
Часовня святого великомученика Георгия Победоносца,55.7730227,37.6399038
Гуси. Третий Рим,55.8354541,37.6182429
Буран,55.8321703,37.6227975
Су-27,55.8347822,37.6231812
Храм-часовня во имя Архистратига Божия Михаила,55.6425063,37.5053885
Храм Покровского монастыря Святых благоверных Петра и Февронии Муромских,55.7390947,37.6706828
Церковь Христиан Адвентистов Седьмого Дня,55.8160359,37.8302335
None2408,55.6725673,37.6714329
Ми-8Т,55.8341784,37.622171
None2410,55.6577188,37.3464844
Дом-музей К.И. Чуковского,55.6586905,37.3306435
Арахнарий,55.7618894,37.5755433
Храм св. Царя-Мученика Николая и всех Новомученников и Исповедников Российских,55.8391029,37.5015449
Парк аттракционов «Дружба»,55.8553167,37.4867302
Счастья вольная птица (Жар-птица),55.7510002,37.621279
Большой Грот,55.6128496,37.6801058
None2418,55.6144325,37.6852316
None2419,55.820341,37.7986109
None2420,55.845963,37.5596953
None2421,55.5938044,37.3460859
Храм Воскресения Христова в Пленницах,55.7117034,37.5744317
